{
"type": "FeatureCollection",
"name": "poblados_geojson",
"crs": { "type": "name", "properties": { "name": "urn:ogc:def:crs:OGC:1.3:CRS84" } },
"features": [
{ "type": "Feature", "properties": { "AREA": 0.0, "PERIMETER": 0.0, "POBZ17_": 1, "POBZ17_ID": 1, "PUEBLOS_": 1, "PUEBLOS_ID": 1, "NUM": 1, "ID": 1, "COD1": 1, "COD2": 1, "NOMBRE": "Esmeraldas", "COD": 1, "CPROVIN": "ESMERALDAS", "CCANT": "Esmeraldas", "CPARR": "Esmeraldas", "CODIGO": "Capital Provincial", "PROVINCIA": "ESMERALDAS", "POP_1990": 105400, "POP_1995": 113500, "POP_2002": 132800, "ORDEN": 15 }, "geometry": { "type": "Point", "coordinates": [ -79.660161172960898, 0.960089511044576 ] } },
{ "type": "Feature", "properties": { "AREA": 0.0, "PERIMETER": 0.0, "POBZ17_": 2, "POBZ17_ID": 2, "PUEBLOS_": 3, "PUEBLOS_ID": 4, "NUM": 4, "ID": 4, "COD1": 1, "COD2": 1, "NOMBRE": "Tulcan", "COD": 1, "CPROVIN": "CARCHI", "CCANT": "Tulcan", "CPARR": null, "CODIGO": "Capital Provincial", "PROVINCIA": null, "POP_1990": 38300, "POP_1995": 44900, "POP_2002": 51400, "ORDEN": 20 }, "geometry": { "type": "Point", "coordinates": [ -77.717344832126173, 0.813150356060818 ] } },
{ "type": "Feature", "properties": { "AREA": 0.0, "PERIMETER": 0.0, "POBZ17_": 3, "POBZ17_ID": 3, "PUEBLOS_": 4, "PUEBLOS_ID": 6, "NUM": 6, "ID": 6, "COD1": 10, "COD2": 1, "NOMBRE": "Quito", "COD": 10, "CPROVIN": "QUITO", "CCANT": "Quito", "CPARR": "Quito", "CODIGO": "Capital del Ecuador", "PROVINCIA": null, "POP_1990": 1187200, "POP_1995": 1401400, "POP_2002": 1648100, "ORDEN": 2 }, "geometry": { "type": "Point", "coordinates": [ -78.507733947196996, -0.226787757826305 ] } },
{ "type": "Feature", "properties": { "AREA": 0.0, "PERIMETER": 0.0, "POBZ17_": 4, "POBZ17_ID": 4, "PUEBLOS_": 6, "PUEBLOS_ID": 11, "NUM": 11, "ID": 11, "COD1": 1, "COD2": 1, "NOMBRE": "Tena", "COD": 1, "CPROVIN": "TENA", "CCANT": "Tena", "CPARR": "Tena", "CODIGO": "Capital Provincial", "PROVINCIA": null, "POP_1990": 8800, "POP_1995": 13500, "POP_2002": 21400, "ORDEN": 0 }, "geometry": { "type": "Point", "coordinates": [ -77.816514406374651, -0.988285148323147 ] } },
{ "type": "Feature", "properties": { "AREA": 0.0, "PERIMETER": 0.0, "POBZ17_": 5, "POBZ17_ID": 5, "PUEBLOS_": 9, "PUEBLOS_ID": 18, "NUM": 18, "ID": 18, "COD1": 2, "COD2": 1, "NOMBRE": "Junin", "COD": 2, "CPROVIN": null, "CCANT": "Junin", "CPARR": "Junin", "CODIGO": "Cabecera Cantonal", "PROVINCIA": "MANABÍ", "POP_1990": 0, "POP_1995": 0, "POP_2002": 0, "ORDEN": 0 }, "geometry": { "type": "Point", "coordinates": [ -80.209754773299579, -0.931847974143231 ] } },
{ "type": "Feature", "properties": { "AREA": 0.0, "PERIMETER": 0.0, "POBZ17_": 6, "POBZ17_ID": 6, "PUEBLOS_": 10, "PUEBLOS_ID": 25, "NUM": 25, "ID": 25, "COD1": 2, "COD2": 1, "NOMBRE": "Olmedo", "COD": 2, "CPROVIN": null, "CCANT": "Olmedo", "CPARR": "Olmedo", "CODIGO": "Cabecera Cantonal", "PROVINCIA": "MANABÍ", "POP_1990": 0, "POP_1995": 0, "POP_2002": 0, "ORDEN": 0 }, "geometry": { "type": "Point", "coordinates": [ -80.206760037660359, -1.39954624444619 ] } },
{ "type": "Feature", "properties": { "AREA": 0.0, "PERIMETER": 0.0, "POBZ17_": 7, "POBZ17_ID": 7, "PUEBLOS_": 11, "PUEBLOS_ID": 26, "NUM": 26, "ID": 26, "COD1": 2, "COD2": 1, "NOMBRE": "Colimes", "COD": 2, "CPROVIN": null, "CCANT": "Colimes", "CPARR": "Colimes", "CODIGO": "Cabecera Cantonal", "PROVINCIA": null, "POP_1990": 0, "POP_1995": 0, "POP_2002": 0, "ORDEN": 0 }, "geometry": { "type": "Point", "coordinates": [ -80.014955752133702, -1.545783109238706 ] } },
{ "type": "Feature", "properties": { "AREA": 0.0, "PERIMETER": 0.0, "POBZ17_": 8, "POBZ17_ID": 8, "PUEBLOS_": 12, "PUEBLOS_ID": 27, "NUM": 27, "ID": 27, "COD1": 2, "COD2": 1, "NOMBRE": "Pajan", "COD": 2, "CPROVIN": null, "CCANT": "Pajan", "CPARR": "Pajan", "CODIGO": "Cabecera Cantonal", "PROVINCIA": "MANABÍ", "POP_1990": 0, "POP_1995": 0, "POP_2002": 0, "ORDEN": 0 }, "geometry": { "type": "Point", "coordinates": [ -80.429229601465025, -1.553432444356474 ] } },
{ "type": "Feature", "properties": { "AREA": 0.0, "PERIMETER": 0.0, "POBZ17_": 9, "POBZ17_ID": 9, "PUEBLOS_": 13, "PUEBLOS_ID": 29, "NUM": 29, "ID": 29, "COD1": 2, "COD2": 1, "NOMBRE": "Pedro Carbo", "COD": 2, "CPROVIN": null, "CCANT": null, "CPARR": "Pedro Carbo", "CODIGO": "Cabecera Parroquial", "PROVINCIA": null, "POP_1990": 14800, "POP_1995": 17300, "POP_2002": 20200, "ORDEN": 0 }, "geometry": { "type": "Point", "coordinates": [ -80.235343380436802, -1.814786773552914 ] } },
{ "type": "Feature", "properties": { "AREA": 0.0, "PERIMETER": 0.0, "POBZ17_": 10, "POBZ17_ID": 10, "PUEBLOS_": 14, "PUEBLOS_ID": 30, "NUM": 30, "ID": 30, "COD1": 2, "COD2": 1, "NOMBRE": "Loma De Sargentillo", "COD": 2, "CPROVIN": null, "CCANT": "Loma De Sargentillo", "CPARR": null, "CODIGO": "Cabecera Cantonal", "PROVINCIA": null, "POP_1990": 0, "POP_1995": 0, "POP_2002": 0, "ORDEN": 0 }, "geometry": { "type": "Point", "coordinates": [ -80.084211233004027, -1.879830750929979 ] } },
{ "type": "Feature", "properties": { "AREA": 0.0, "PERIMETER": 0.0, "POBZ17_": 11, "POBZ17_ID": 11, "PUEBLOS_": 15, "PUEBLOS_ID": 31, "NUM": 31, "ID": 31, "COD1": 2, "COD2": 1, "NOMBRE": "Narcisa De Jesus (nobol)", "COD": 2, "CPROVIN": null, "CCANT": "Narcisa De Jesus (nobol)", "CPARR": null, "CODIGO": "Cabecera Cantonal", "PROVINCIA": null, "POP_1990": 0, "POP_1995": 0, "POP_2002": 0, "ORDEN": 0 }, "geometry": { "type": "Point", "coordinates": [ -80.014226148263901, -1.9151623325594 ] } },
{ "type": "Feature", "properties": { "AREA": 0.0, "PERIMETER": 0.0, "POBZ17_": 12, "POBZ17_ID": 12, "PUEBLOS_": 17, "PUEBLOS_ID": 40, "NUM": 40, "ID": 40, "COD1": 2, "COD2": 1, "NOMBRE": "San Jacinto De Buena Fe", "COD": 2, "CPROVIN": null, "CCANT": null, "CPARR": "San Jacinto De Buena Fe", "CODIGO": "Cabecera Parroquial", "PROVINCIA": null, "POP_1990": 0, "POP_1995": 0, "POP_2002": 0, "ORDEN": 0 }, "geometry": { "type": "Point", "coordinates": [ -79.492620874353307, -0.898091680969114 ] } },
{ "type": "Feature", "properties": { "AREA": 0.0, "PERIMETER": 0.0, "POBZ17_": 13, "POBZ17_ID": 13, "PUEBLOS_": 18, "PUEBLOS_ID": 41, "NUM": 41, "ID": 41, "COD1": 2, "COD2": 1, "NOMBRE": "La Mana", "COD": 2, "CPROVIN": null, "CCANT": "La Mana", "CPARR": "La Mana", "CODIGO": "Cabecera Cantonal", "PROVINCIA": null, "POP_1990": 0, "POP_1995": 0, "POP_2002": 0, "ORDEN": 0 }, "geometry": { "type": "Point", "coordinates": [ -79.225512840729806, -0.945412279418156 ] } },
{ "type": "Feature", "properties": { "AREA": 0.0, "PERIMETER": 0.0, "POBZ17_": 14, "POBZ17_ID": 14, "PUEBLOS_": 19, "PUEBLOS_ID": 43, "NUM": 43, "ID": 43, "COD1": 2, "COD2": 1, "NOMBRE": "Velasco Ibarra", "COD": 2, "CPROVIN": null, "CCANT": null, "CPARR": "Velasco Ibarra", "CODIGO": "Cabecera Parroquial", "PROVINCIA": null, "POP_1990": 25800, "POP_1995": 33000, "POP_2002": 38700, "ORDEN": 0 }, "geometry": { "type": "Point", "coordinates": [ -79.638505352008877, -1.044337907786 ] } },
{ "type": "Feature", "properties": { "AREA": 0.0, "PERIMETER": 0.0, "POBZ17_": 15, "POBZ17_ID": 15, "PUEBLOS_": 20, "PUEBLOS_ID": 46, "NUM": 46, "ID": 46, "COD1": 2, "COD2": 1, "NOMBRE": "Las Naves", "COD": 2, "CPROVIN": null, "CCANT": "Las Naves", "CPARR": "Las Naves", "CODIGO": "Cabecera Cantonal", "PROVINCIA": null, "POP_1990": 0, "POP_1995": 0, "POP_2002": 0, "ORDEN": 0 }, "geometry": { "type": "Point", "coordinates": [ -79.312267774006628, -1.28441049309122 ] } },
{ "type": "Feature", "properties": { "AREA": 0.0, "PERIMETER": 0.0, "POBZ17_": 16, "POBZ17_ID": 16, "PUEBLOS_": 21, "PUEBLOS_ID": 47, "NUM": 47, "ID": 47, "COD1": 2, "COD2": 1, "NOMBRE": "Balzar", "COD": 2, "CPROVIN": null, "CCANT": "Balzar", "CPARR": "Balzar", "CODIGO": "Cabecera Cantonal", "PROVINCIA": null, "POP_1990": 23200, "POP_1995": 28000, "POP_2002": 32800, "ORDEN": 0 }, "geometry": { "type": "Point", "coordinates": [ -79.902930577077811, -1.367295479245264 ] } },
{ "type": "Feature", "properties": { "AREA": 0.0, "PERIMETER": 0.0, "POBZ17_": 17, "POBZ17_ID": 17, "PUEBLOS_": 24, "PUEBLOS_ID": 51, "NUM": 51, "ID": 51, "COD1": 2, "COD2": 1, "NOMBRE": "Vinces", "COD": 2, "CPROVIN": null, "CCANT": null, "CPARR": "Vinces", "CODIGO": "Cabecera Parroquial", "PROVINCIA": null, "POP_1990": 18400, "POP_1995": 22300, "POP_2002": 25800, "ORDEN": 0 }, "geometry": { "type": "Point", "coordinates": [ -79.745901828180351, -1.56205010916983 ] } },
{ "type": "Feature", "properties": { "AREA": 0.0, "PERIMETER": 0.0, "POBZ17_": 18, "POBZ17_ID": 18, "PUEBLOS_": 25, "PUEBLOS_ID": 52, "NUM": 52, "ID": 52, "COD1": 2, "COD2": 1, "NOMBRE": "Pueblo Viejo", "COD": 2, "CPROVIN": null, "CCANT": "Pueblo Viejo", "CPARR": null, "CODIGO": "Cabecera Cantonal", "PROVINCIA": null, "POP_1990": 0, "POP_1995": 0, "POP_2002": 0, "ORDEN": 0 }, "geometry": { "type": "Point", "coordinates": [ -79.528575643909676, -1.549465074108645 ] } },
{ "type": "Feature", "properties": { "AREA": 0.0, "PERIMETER": 0.0, "POBZ17_": 19, "POBZ17_ID": 19, "PUEBLOS_": 26, "PUEBLOS_ID": 53, "NUM": 53, "ID": 53, "COD1": 2, "COD2": 1, "NOMBRE": "Catarama", "COD": 2, "CPROVIN": null, "CCANT": "Catarama", "CPARR": "Catarama", "CODIGO": "Cabecera Cantonal", "PROVINCIA": null, "POP_1990": 0, "POP_1995": 0, "POP_2002": 0, "ORDEN": 0 }, "geometry": { "type": "Point", "coordinates": [ -79.477267465902045, -1.57194867768142 ] } },
{ "type": "Feature", "properties": { "AREA": 0.0, "PERIMETER": 0.0, "POBZ17_": 20, "POBZ17_ID": 20, "PUEBLOS_": 27, "PUEBLOS_ID": 54, "NUM": 54, "ID": 54, "COD1": 2, "COD2": 1, "NOMBRE": "Caluma", "COD": 2, "CPROVIN": null, "CCANT": "Caluma", "CPARR": "Caluma", "CODIGO": "Cabecera Cantonal", "PROVINCIA": null, "POP_1990": 0, "POP_1995": 0, "POP_2002": 0, "ORDEN": 0 }, "geometry": { "type": "Point", "coordinates": [ -79.258057268167832, -1.628721837571162 ] } },
{ "type": "Feature", "properties": { "AREA": 0.0, "PERIMETER": 0.0, "POBZ17_": 21, "POBZ17_ID": 21, "PUEBLOS_": 28, "PUEBLOS_ID": 55, "NUM": 55, "ID": 55, "COD1": 2, "COD2": 1, "NOMBRE": "Palestina", "COD": 2, "CPROVIN": null, "CCANT": null, "CPARR": "Palestina", "CODIGO": "Cabecera Parroquial", "PROVINCIA": null, "POP_1990": 0, "POP_1995": 0, "POP_2002": 0, "ORDEN": 0 }, "geometry": { "type": "Point", "coordinates": [ -79.974726078025739, -1.629727182471568 ] } },
{ "type": "Feature", "properties": { "AREA": 0.0, "PERIMETER": 0.0, "POBZ17_": 22, "POBZ17_ID": 22, "PUEBLOS_": 29, "PUEBLOS_ID": 56, "NUM": 56, "ID": 56, "COD1": 2, "COD2": 1, "NOMBRE": "San Jose De Chimbo", "COD": 2, "CPROVIN": null, "CCANT": "San Jose De Chimbo", "CPARR": "San Jose De Chimbo", "CODIGO": "Cabecera Cantonal", "PROVINCIA": null, "POP_1990": 0, "POP_1995": 0, "POP_2002": 0, "ORDEN": 0 }, "geometry": { "type": "Point", "coordinates": [ -79.030790338988893, -1.692203796463163 ] } },
{ "type": "Feature", "properties": { "AREA": 0.0, "PERIMETER": 0.0, "POBZ17_": 23, "POBZ17_ID": 23, "PUEBLOS_": 30, "PUEBLOS_ID": 58, "NUM": 58, "ID": 58, "COD1": 2, "COD2": 1, "NOMBRE": "Sta. Lucía", "COD": 2, "CPROVIN": null, "CCANT": null, "CPARR": "Sta. Lucía", "CODIGO": "Cabecera Parroquial", "PROVINCIA": null, "POP_1990": 0, "POP_1995": 0, "POP_2002": 0, "ORDEN": 0 }, "geometry": { "type": "Point", "coordinates": [ -79.980700629364037, -1.716198930643831 ] } },
{ "type": "Feature", "properties": { "AREA": 0.0, "PERIMETER": 0.0, "POBZ17_": 24, "POBZ17_ID": 24, "PUEBLOS_": 34, "PUEBLOS_ID": 62, "NUM": 62, "ID": 62, "COD1": 2, "COD2": 1, "NOMBRE": "El Salitre ( Las Ramas)", "COD": 2, "CPROVIN": null, "CCANT": null, "CPARR": "El Salitre ( Las Ramas)", "CODIGO": "Cabecera Parroquial", "PROVINCIA": null, "POP_1990": 0, "POP_1995": 0, "POP_2002": 0, "ORDEN": 0 }, "geometry": { "type": "Point", "coordinates": [ -79.817148020237994, -1.829551369414977 ] } },
{ "type": "Feature", "properties": { "AREA": 0.0, "PERIMETER": 0.0, "POBZ17_": 25, "POBZ17_ID": 25, "PUEBLOS_": 35, "PUEBLOS_ID": 63, "NUM": 63, "ID": 63, "COD1": 2, "COD2": 1, "NOMBRE": "Alfredo Baquerizo Moreno (jujan)", "COD": 2, "CPROVIN": null, "CCANT": "Alfredo Baquerizo Moreno (jujan)", "CPARR": "Alfredo Baquerizo Moreno (jujan)", "CODIGO": "Cabecera Cantonal", "PROVINCIA": null, "POP_1990": 0, "POP_1995": 0, "POP_2002": 0, "ORDEN": 0 }, "geometry": { "type": "Point", "coordinates": [ -79.554915150368188, -1.89768997905206 ] } },
{ "type": "Feature", "properties": { "AREA": 0.0, "PERIMETER": 0.0, "POBZ17_": 26, "POBZ17_ID": 26, "PUEBLOS_": 43, "PUEBLOS_ID": 83, "NUM": 83, "ID": 83, "COD1": 2, "COD2": 1, "NOMBRE": "Saquisili", "COD": 2, "CPROVIN": null, "CCANT": "Saquisili", "CPARR": "Saquisili", "CODIGO": "Cabecera Cantonal", "PROVINCIA": null, "POP_1990": 0, "POP_1995": 0, "POP_2002": 0, "ORDEN": 0 }, "geometry": { "type": "Point", "coordinates": [ -78.671168830153121, -0.837188308356794 ] } },
{ "type": "Feature", "properties": { "AREA": 0.0, "PERIMETER": 0.0, "POBZ17_": 27, "POBZ17_ID": 27, "PUEBLOS_": 44, "PUEBLOS_ID": 86, "NUM": 86, "ID": 86, "COD1": 2, "COD2": 1, "NOMBRE": "San Miguel", "COD": 2, "CPROVIN": null, "CCANT": null, "CPARR": "San Miguel", "CODIGO": "Cabecera Parroquial", "PROVINCIA": null, "POP_1990": 0, "POP_1995": 0, "POP_2002": 0, "ORDEN": 0 }, "geometry": { "type": "Point", "coordinates": [ -78.588893698954166, -1.044625099908415 ] } },
{ "type": "Feature", "properties": { "AREA": 0.0, "PERIMETER": 0.0, "POBZ17_": 28, "POBZ17_ID": 28, "PUEBLOS_": 45, "PUEBLOS_ID": 87, "NUM": 87, "ID": 87, "COD1": 2, "COD2": 1, "NOMBRE": "Pillaro", "COD": 2, "CPROVIN": null, "CCANT": "Pillaro", "CPARR": "Pillaro", "CODIGO": "Cabecera Cantonal", "PROVINCIA": null, "POP_1990": 0, "POP_1995": 0, "POP_2002": 0, "ORDEN": 0 }, "geometry": { "type": "Point", "coordinates": [ -78.553394472004342, -1.174325029279145 ] } },
{ "type": "Feature", "properties": { "AREA": 0.0, "PERIMETER": 0.0, "POBZ17_": 29, "POBZ17_ID": 29, "PUEBLOS_": 46, "PUEBLOS_ID": 89, "NUM": 89, "ID": 89, "COD1": 2, "COD2": 1, "NOMBRE": "Pelileo", "COD": 2, "CPROVIN": null, "CCANT": null, "CPARR": "Pelileo", "CODIGO": "Cabecera Parroquial", "PROVINCIA": null, "POP_1990": 0, "POP_1995": 0, "POP_2002": 0, "ORDEN": 0 }, "geometry": { "type": "Point", "coordinates": [ -78.545392084009066, -1.330429049312707 ] } },
{ "type": "Feature", "properties": { "AREA": 0.0, "PERIMETER": 0.0, "POBZ17_": 30, "POBZ17_ID": 30, "PUEBLOS_": 47, "PUEBLOS_ID": 90, "NUM": 90, "ID": 90, "COD1": 2, "COD2": 1, "NOMBRE": "Tisaleo", "COD": 2, "CPROVIN": null, "CCANT": "Tisaleo", "CPARR": "Tisaleo", "CODIGO": "Cabecera Cantonal", "PROVINCIA": null, "POP_1990": 0, "POP_1995": 0, "POP_2002": 0, "ORDEN": 0 }, "geometry": { "type": "Point", "coordinates": [ -78.668310941652706, -1.349956509013425 ] } },
{ "type": "Feature", "properties": { "AREA": 0.0, "PERIMETER": 0.0, "POBZ17_": 31, "POBZ17_ID": 31, "PUEBLOS_": 48, "PUEBLOS_ID": 91, "NUM": 91, "ID": 91, "COD1": 2, "COD2": 1, "NOMBRE": "Cevallos", "COD": 2, "CPROVIN": null, "CCANT": "Cevallos", "CPARR": "Cevallos", "CODIGO": "Cabecera Cantonal", "PROVINCIA": null, "POP_1990": 0, "POP_1995": 0, "POP_2002": 0, "ORDEN": 0 }, "geometry": { "type": "Point", "coordinates": [ -78.614324691530044, -1.355183127897127 ] } },
{ "type": "Feature", "properties": { "AREA": 0.0, "PERIMETER": 0.0, "POBZ17_": 32, "POBZ17_ID": 32, "PUEBLOS_": 49, "PUEBLOS_ID": 94, "NUM": 94, "ID": 94, "COD1": 2, "COD2": 1, "NOMBRE": "Baños", "COD": 2, "CPROVIN": null, "CCANT": "Baños", "CPARR": "Baños", "CODIGO": "Cabecera Cantonal", "PROVINCIA": null, "POP_1990": 0, "POP_1995": 0, "POP_2002": 0, "ORDEN": 0 }, "geometry": { "type": "Point", "coordinates": [ -78.421588754683086, -1.402652349075785 ] } },
{ "type": "Feature", "properties": { "AREA": 0.0, "PERIMETER": 0.0, "POBZ17_": 33, "POBZ17_ID": 33, "PUEBLOS_": 50, "PUEBLOS_ID": 95, "NUM": 95, "ID": 95, "COD1": 2, "COD2": 1, "NOMBRE": "Mera", "COD": 2, "CPROVIN": null, "CCANT": "Mera", "CPARR": "Mera", "CODIGO": "Cabecera Cantonal", "PROVINCIA": null, "POP_1990": 0, "POP_1995": 0, "POP_2002": 0, "ORDEN": 0 }, "geometry": { "type": "Point", "coordinates": [ -78.111396783108617, -1.455320360255343 ] } },
{ "type": "Feature", "properties": { "AREA": 0.0, "PERIMETER": 0.0, "POBZ17_": 34, "POBZ17_ID": 34, "PUEBLOS_": 51, "PUEBLOS_ID": 98, "NUM": 98, "ID": 98, "COD1": 2, "COD2": 1, "NOMBRE": "Cajabamba", "COD": 2, "CPROVIN": null, "CCANT": "Cajabamba", "CPARR": null, "CODIGO": "Cabecera Cantonal", "PROVINCIA": null, "POP_1990": 0, "POP_1995": 0, "POP_2002": 0, "ORDEN": 0 }, "geometry": { "type": "Point", "coordinates": [ -78.775246069621517, -1.703549914068965 ] } },
{ "type": "Feature", "properties": { "AREA": 0.0, "PERIMETER": 0.0, "POBZ17_": 35, "POBZ17_ID": 35, "PUEBLOS_": 52, "PUEBLOS_ID": 100, "NUM": 100, "ID": 100, "COD1": 2, "COD2": 1, "NOMBRE": "Pallatanga", "COD": 2, "CPROVIN": null, "CCANT": "Pallatanga", "CPARR": "Pallatanga", "CODIGO": "Cabecera Cantonal", "PROVINCIA": null, "POP_1990": 0, "POP_1995": 0, "POP_2002": 0, "ORDEN": 0 }, "geometry": { "type": "Point", "coordinates": [ -78.969962376915063, -1.995375237640541 ] } },
{ "type": "Feature", "properties": { "AREA": 0.0, "PERIMETER": 0.0, "POBZ17_": 36, "POBZ17_ID": 36, "PUEBLOS_": 53, "PUEBLOS_ID": 103, "NUM": 103, "ID": 103, "COD1": 2, "COD2": 1, "NOMBRE": "El Angel", "COD": 2, "CPROVIN": null, "CCANT": null, "CPARR": "El Angel", "CODIGO": "Cabecera Parroquial", "PROVINCIA": null, "POP_1990": 0, "POP_1995": 0, "POP_2002": 0, "ORDEN": 0 }, "geometry": { "type": "Point", "coordinates": [ -77.938051247090741, 0.625341718728686 ] } },
{ "type": "Feature", "properties": { "AREA": 0.0, "PERIMETER": 0.0, "POBZ17_": 37, "POBZ17_ID": 37, "PUEBLOS_": 57, "PUEBLOS_ID": 117, "NUM": 117, "ID": 117, "COD1": 2, "COD2": 1, "NOMBRE": "Shushufindi", "COD": 2, "CPROVIN": null, "CCANT": "Shushufindi", "CPARR": "Shushufindi", "CODIGO": "Cabecera Cantonal", "PROVINCIA": null, "POP_1990": 0, "POP_1995": 0, "POP_2002": 0, "ORDEN": 0 }, "geometry": { "type": "Point", "coordinates": [ -76.646971471562253, -0.18898602793243 ] } },
{ "type": "Feature", "properties": { "AREA": 0.0, "PERIMETER": 0.0, "POBZ17_": 38, "POBZ17_ID": 38, "PUEBLOS_": 60, "PUEBLOS_ID": 121, "NUM": 121, "ID": 121, "COD1": 2, "COD2": 1, "NOMBRE": "San Lorezo", "COD": 2, "CPROVIN": null, "CCANT": "San Lorezo", "CPARR": null, "CODIGO": "Cabecera Cantonal", "PROVINCIA": "ESMERALDAS", "POP_1990": 0, "POP_1995": 0, "POP_2002": 0, "ORDEN": 0 }, "geometry": { "type": "Point", "coordinates": [ -78.839752070965403, 1.276712775711029 ] } },
{ "type": "Feature", "properties": { "AREA": 0.0, "PERIMETER": 0.0, "POBZ17_": 39, "POBZ17_ID": 39, "PUEBLOS_": 61, "PUEBLOS_ID": 122, "NUM": 122, "ID": 122, "COD1": 2, "COD2": 1, "NOMBRE": "Valdez", "COD": 2, "CPROVIN": null, "CCANT": "Valdez", "CPARR": "Valdez", "CODIGO": "Cabecera Cantonal", "PROVINCIA": "ESMERALDAS", "POP_1990": 0, "POP_1995": 0, "POP_2002": 0, "ORDEN": 0 }, "geometry": { "type": "Point", "coordinates": [ -78.985604895676417, 1.236787913526564 ] } },
{ "type": "Feature", "properties": { "AREA": 0.0, "PERIMETER": 0.0, "POBZ17_": 40, "POBZ17_ID": 40, "PUEBLOS_": 62, "PUEBLOS_ID": 124, "NUM": 124, "ID": 124, "COD1": 2, "COD2": 1, "NOMBRE": "Pedernales", "COD": 2, "CPROVIN": null, "CCANT": "Pedernales", "CPARR": "Pedernales", "CODIGO": "Cabecera Cantonal", "PROVINCIA": null, "POP_1990": 0, "POP_1995": 0, "POP_2002": 0, "ORDEN": 0 }, "geometry": { "type": "Point", "coordinates": [ -80.055073409558318, 0.069477725147765 ] } },
{ "type": "Feature", "properties": { "AREA": 0.0, "PERIMETER": 0.0, "POBZ17_": 41, "POBZ17_ID": 41, "PUEBLOS_": 64, "PUEBLOS_ID": 129, "NUM": 129, "ID": 129, "COD1": 1, "COD2": 1, "NOMBRE": "Macas", "COD": 1, "CPROVIN": "MORONA SANTIAGO", "CCANT": "Macas", "CPARR": "Macas", "CODIGO": "Capital Provincial", "PROVINCIA": null, "POP_1990": 9100, "POP_1995": 18500, "POP_2002": 21900, "ORDEN": 0 }, "geometry": { "type": "Point", "coordinates": [ -78.119809357080953, -2.311122389202708 ] } },
{ "type": "Feature", "properties": { "AREA": 0.0, "PERIMETER": 0.0, "POBZ17_": 42, "POBZ17_ID": 42, "PUEBLOS_": 65, "PUEBLOS_ID": 131, "NUM": 131, "ID": 131, "COD1": 2, "COD2": 1, "NOMBRE": "Grl. Villamil", "COD": 2, "CPROVIN": null, "CCANT": null, "CPARR": "Grl. Villamil", "CODIGO": "Cabecera Parroquial", "PROVINCIA": null, "POP_1990": 0, "POP_1995": 0, "POP_2002": 0, "ORDEN": 0 }, "geometry": { "type": "Point", "coordinates": [ -80.392860844373061, -2.625644109109814 ] } },
{ "type": "Feature", "properties": { "AREA": 0.0, "PERIMETER": 0.0, "POBZ17_": 43, "POBZ17_ID": 43, "PUEBLOS_": 66, "PUEBLOS_ID": 132, "NUM": 132, "ID": 132, "COD1": 2, "COD2": 1, "NOMBRE": "Huaquillas", "COD": 2, "CPROVIN": null, "CCANT": "Huaquillas", "CPARR": "Huaquillas", "CODIGO": "Cabecera Cantonal", "PROVINCIA": null, "POP_1990": 29300, "POP_1995": 34800, "POP_2002": 40800, "ORDEN": 24 }, "geometry": { "type": "Point", "coordinates": [ -80.233044901124856, -3.480517284515178 ] } },
{ "type": "Feature", "properties": { "AREA": 0.0, "PERIMETER": 0.0, "POBZ17_": 44, "POBZ17_ID": 44, "PUEBLOS_": 67, "PUEBLOS_ID": 133, "NUM": 133, "ID": 133, "COD1": 2, "COD2": 1, "NOMBRE": "Arenillas", "COD": 2, "CPROVIN": null, "CCANT": "Arenillas", "CPARR": "Arenillas", "CODIGO": "Cabecera Cantonal", "PROVINCIA": null, "POP_1990": 0, "POP_1995": 0, "POP_2002": 0, "ORDEN": 0 }, "geometry": { "type": "Point", "coordinates": [ -80.064868309842694, -3.56151552611883 ] } },
{ "type": "Feature", "properties": { "AREA": 0.0, "PERIMETER": 0.0, "POBZ17_": 45, "POBZ17_ID": 45, "PUEBLOS_": 68, "PUEBLOS_ID": 134, "NUM": 134, "ID": 134, "COD1": 2, "COD2": 1, "NOMBRE": "La Victoria", "COD": 2, "CPROVIN": null, "CCANT": null, "CPARR": "La Victoria", "CODIGO": "Cabecera Parroquial", "PROVINCIA": null, "POP_1990": 0, "POP_1995": 0, "POP_2002": 0, "ORDEN": 0 }, "geometry": { "type": "Point", "coordinates": [ -80.061055316594675, -3.785104008432625 ] } },
{ "type": "Feature", "properties": { "AREA": 0.0, "PERIMETER": 0.0, "POBZ17_": 46, "POBZ17_ID": 46, "PUEBLOS_": 69, "PUEBLOS_ID": 136, "NUM": 136, "ID": 136, "COD1": 2, "COD2": 1, "NOMBRE": "Pindal", "COD": 2, "CPROVIN": null, "CCANT": null, "CPARR": "Pindal", "CODIGO": "Cabecera Parroquial", "PROVINCIA": null, "POP_1990": 0, "POP_1995": 0, "POP_2002": 0, "ORDEN": 0 }, "geometry": { "type": "Point", "coordinates": [ -80.104630094821744, -4.118496053994208 ] } },
{ "type": "Feature", "properties": { "AREA": 0.0, "PERIMETER": 0.0, "POBZ17_": 47, "POBZ17_ID": 47, "PUEBLOS_": 70, "PUEBLOS_ID": 138, "NUM": 138, "ID": 138, "COD1": 2, "COD2": 1, "NOMBRE": "La Troncal", "COD": 2, "CPROVIN": null, "CCANT": "La Troncal", "CPARR": null, "CODIGO": "Cabecera Cantonal", "PROVINCIA": null, "POP_1990": 20200, "POP_1995": 25500, "POP_2002": 29100, "ORDEN": 0 }, "geometry": { "type": "Point", "coordinates": [ -79.342464114915501, -2.423936847104564 ] } },
{ "type": "Feature", "properties": { "AREA": 0.0, "PERIMETER": 0.0, "POBZ17_": 48, "POBZ17_ID": 48, "PUEBLOS_": 71, "PUEBLOS_ID": 139, "NUM": 139, "ID": 139, "COD1": 2, "COD2": 1, "NOMBRE": "Naranjal", "COD": 2, "CPROVIN": null, "CCANT": "Naranjal", "CPARR": "Naranjal", "CODIGO": "Cabecera Cantonal", "PROVINCIA": null, "POP_1990": 15100, "POP_1995": 20200, "POP_2002": 23600, "ORDEN": 0 }, "geometry": { "type": "Point", "coordinates": [ -79.615598184645066, -2.67388540738113 ] } },
{ "type": "Feature", "properties": { "AREA": 0.0, "PERIMETER": 0.0, "POBZ17_": 49, "POBZ17_ID": 49, "PUEBLOS_": 72, "PUEBLOS_ID": 140, "NUM": 140, "ID": 140, "COD1": 2, "COD2": 1, "NOMBRE": "Balao", "COD": 2, "CPROVIN": null, "CCANT": "Balao", "CPARR": "Balao", "CODIGO": "Cabecera Cantonal", "PROVINCIA": null, "POP_1990": 0, "POP_1995": 0, "POP_2002": 0, "ORDEN": 0 }, "geometry": { "type": "Point", "coordinates": [ -79.812479290611961, -2.916030853614124 ] } },
{ "type": "Feature", "properties": { "AREA": 0.0, "PERIMETER": 0.0, "POBZ17_": 50, "POBZ17_ID": 50, "PUEBLOS_": 73, "PUEBLOS_ID": 142, "NUM": 142, "ID": 142, "COD1": 2, "COD2": 1, "NOMBRE": "San Fernando", "COD": 2, "CPROVIN": null, "CCANT": "San Fernando", "CPARR": "San Fernando", "CODIGO": "Cabecera Cantonal", "PROVINCIA": null, "POP_1990": 0, "POP_1995": 0, "POP_2002": 0, "ORDEN": 0 }, "geometry": { "type": "Point", "coordinates": [ -79.254039420505066, -3.148075503741939 ] } },
{ "type": "Feature", "properties": { "AREA": 0.0, "PERIMETER": 0.0, "POBZ17_": 51, "POBZ17_ID": 51, "PUEBLOS_": 76, "PUEBLOS_ID": 145, "NUM": 145, "ID": 145, "COD1": 2, "COD2": 1, "NOMBRE": "Pucara", "COD": 2, "CPROVIN": null, "CCANT": null, "CPARR": "Pucara", "CODIGO": "Cabecera Parroquial", "PROVINCIA": null, "POP_1990": 0, "POP_1995": 0, "POP_2002": 0, "ORDEN": 0 }, "geometry": { "type": "Point", "coordinates": [ -79.469726038550064, -3.218042770760218 ] } },
{ "type": "Feature", "properties": { "AREA": 0.0, "PERIMETER": 0.0, "POBZ17_": 52, "POBZ17_ID": 52, "PUEBLOS_": 78, "PUEBLOS_ID": 148, "NUM": 148, "ID": 148, "COD1": 2, "COD2": 1, "NOMBRE": "Oña", "COD": 2, "CPROVIN": null, "CCANT": "Ona", "CPARR": "Oña", "CODIGO": "Cabecera Cantonal", "PROVINCIA": null, "POP_1990": 0, "POP_1995": 0, "POP_2002": 0, "ORDEN": 0 }, "geometry": { "type": "Point", "coordinates": [ -79.15435454206137, -3.471491610697893 ] } },
{ "type": "Feature", "properties": { "AREA": 0.0, "PERIMETER": 0.0, "POBZ17_": 53, "POBZ17_ID": 53, "PUEBLOS_": 79, "PUEBLOS_ID": 149, "NUM": 149, "ID": 149, "COD1": 2, "COD2": 1, "NOMBRE": "Chilla", "COD": 2, "CPROVIN": null, "CCANT": "Chilla", "CPARR": "Chilla", "CODIGO": "Cabecera Cantonal", "PROVINCIA": null, "POP_1990": 0, "POP_1995": 0, "POP_2002": 0, "ORDEN": 0 }, "geometry": { "type": "Point", "coordinates": [ -79.589411857814056, -3.457598836312184 ] } },
{ "type": "Feature", "properties": { "AREA": 0.0, "PERIMETER": 0.0, "POBZ17_": 54, "POBZ17_ID": 54, "PUEBLOS_": 80, "PUEBLOS_ID": 151, "NUM": 151, "ID": 151, "COD1": 2, "COD2": 1, "NOMBRE": "Marcabeli", "COD": 2, "CPROVIN": null, "CCANT": "Marcabeli", "CPARR": "Marcabeli", "CODIGO": "Cabecera Cantonal", "PROVINCIA": null, "POP_1990": 0, "POP_1995": 0, "POP_2002": 0, "ORDEN": 0 }, "geometry": { "type": "Point", "coordinates": [ -79.907114761047239, -3.793082681692277 ] } },
{ "type": "Feature", "properties": { "AREA": 0.0, "PERIMETER": 0.0, "POBZ17_": 55, "POBZ17_ID": 55, "PUEBLOS_": 81, "PUEBLOS_ID": 152, "NUM": 152, "ID": 152, "COD1": 2, "COD2": 1, "NOMBRE": "Balsas", "COD": 2, "CPROVIN": null, "CCANT": "Balsas", "CPARR": "Balsas", "CODIGO": "Cabecera Cantonal", "PROVINCIA": null, "POP_1990": 0, "POP_1995": 0, "POP_2002": 0, "ORDEN": 0 }, "geometry": { "type": "Point", "coordinates": [ -79.827996579224404, -3.771542578915107 ] } },
{ "type": "Feature", "properties": { "AREA": 0.0, "PERIMETER": 0.0, "POBZ17_": 56, "POBZ17_ID": 56, "PUEBLOS_": 82, "PUEBLOS_ID": 153, "NUM": 153, "ID": 153, "COD1": 2, "COD2": 1, "NOMBRE": "Piñas", "COD": 2, "CPROVIN": null, "CCANT": "Pinas", "CPARR": "Piñas", "CODIGO": "Cabecera Cantonal", "PROVINCIA": null, "POP_1990": 0, "POP_1995": 0, "POP_2002": 0, "ORDEN": 0 }, "geometry": { "type": "Point", "coordinates": [ -79.677488552137987, -3.67969684434865 ] } },
{ "type": "Feature", "properties": { "AREA": 0.0, "PERIMETER": 0.0, "POBZ17_": 57, "POBZ17_ID": 57, "PUEBLOS_": 83, "PUEBLOS_ID": 154, "NUM": 154, "ID": 154, "COD1": 2, "COD2": 1, "NOMBRE": "Paccha", "COD": 2, "CPROVIN": null, "CCANT": "Paccha", "CPARR": "Paccha", "CODIGO": "Cabecera Cantonal", "PROVINCIA": null, "POP_1990": 0, "POP_1995": 0, "POP_2002": 0, "ORDEN": 0 }, "geometry": { "type": "Point", "coordinates": [ -79.668317241249625, -3.593950301735665 ] } },
{ "type": "Feature", "properties": { "AREA": 0.0, "PERIMETER": 0.0, "POBZ17_": 58, "POBZ17_ID": 58, "PUEBLOS_": 84, "PUEBLOS_ID": 155, "NUM": 155, "ID": 155, "COD1": 2, "COD2": 1, "NOMBRE": "Portovelo", "COD": 2, "CPROVIN": null, "CCANT": "Portovelo", "CPARR": null, "CODIGO": "Cabecera Cantonal", "PROVINCIA": null, "POP_1990": 0, "POP_1995": 0, "POP_2002": 0, "ORDEN": 0 }, "geometry": { "type": "Point", "coordinates": [ -79.623235370029391, -3.714290803614787 ] } },
{ "type": "Feature", "properties": { "AREA": 0.0, "PERIMETER": 0.0, "POBZ17_": 59, "POBZ17_ID": 59, "PUEBLOS_": 87, "PUEBLOS_ID": 158, "NUM": 158, "ID": 158, "COD1": 2, "COD2": 1, "NOMBRE": "Chaguarpamba", "COD": 2, "CPROVIN": null, "CCANT": "Chaguarpamba", "CPARR": "Chaguarpamba", "CODIGO": "Cabecera Cantonal", "PROVINCIA": null, "POP_1990": 0, "POP_1995": 0, "POP_2002": 0, "ORDEN": 0 }, "geometry": { "type": "Point", "coordinates": [ -79.64601829448813, -3.876229602658632 ] } },
{ "type": "Feature", "properties": { "AREA": 0.0, "PERIMETER": 0.0, "POBZ17_": 60, "POBZ17_ID": 60, "PUEBLOS_": 89, "PUEBLOS_ID": 160, "NUM": 160, "ID": 160, "COD1": 2, "COD2": 1, "NOMBRE": "Catacocha", "COD": 2, "CPROVIN": null, "CCANT": null, "CPARR": "Catacocha", "CODIGO": "Cabecera Parroquial", "PROVINCIA": null, "POP_1990": 0, "POP_1995": 0, "POP_2002": 0, "ORDEN": 0 }, "geometry": { "type": "Point", "coordinates": [ -79.651139016780959, -4.052539988194273 ] } },
{ "type": "Feature", "properties": { "AREA": 0.0, "PERIMETER": 0.0, "POBZ17_": 61, "POBZ17_ID": 61, "PUEBLOS_": 91, "PUEBLOS_ID": 169, "NUM": 169, "ID": 169, "COD1": 2, "COD2": 1, "NOMBRE": "El Tambo", "COD": 2, "CPROVIN": null, "CCANT": "El Tambo", "CPARR": "El Tambo", "CODIGO": "Cabecera Cantonal", "PROVINCIA": null, "POP_1990": 0, "POP_1995": 0, "POP_2002": 0, "ORDEN": 0 }, "geometry": { "type": "Point", "coordinates": [ -78.929910947364093, -2.516344614842364 ] } },
{ "type": "Feature", "properties": { "AREA": 0.0, "PERIMETER": 0.0, "POBZ17_": 62, "POBZ17_ID": 62, "PUEBLOS_": 92, "PUEBLOS_ID": 171, "NUM": 171, "ID": 171, "COD1": 2, "COD2": 1, "NOMBRE": "Cañar", "COD": 2, "CPROVIN": null, "CCANT": "Cañar", "CPARR": "Cañar", "CODIGO": "Cabecera Cantonal", "PROVINCIA": null, "POP_1990": 0, "POP_1995": 0, "POP_2002": 0, "ORDEN": 0 }, "geometry": { "type": "Point", "coordinates": [ -78.939806712402415, -2.56209108447153 ] } },
{ "type": "Feature", "properties": { "AREA": 0.0, "PERIMETER": 0.0, "POBZ17_": 63, "POBZ17_ID": 63, "PUEBLOS_": 94, "PUEBLOS_ID": 174, "NUM": 174, "ID": 174, "COD1": 2, "COD2": 1, "NOMBRE": "El Pan", "COD": 2, "CPROVIN": null, "CCANT": "El Pan", "CPARR": "El Pan", "CODIGO": "Cabecera Cantonal", "PROVINCIA": null, "POP_1990": 0, "POP_1995": 0, "POP_2002": 0, "ORDEN": 0 }, "geometry": { "type": "Point", "coordinates": [ -78.66836577574864, -2.790607178653314 ] } },
{ "type": "Feature", "properties": { "AREA": 0.0, "PERIMETER": 0.0, "POBZ17_": 64, "POBZ17_ID": 64, "PUEBLOS_": 96, "PUEBLOS_ID": 176, "NUM": 176, "ID": 176, "COD1": 2, "COD2": 1, "NOMBRE": "Deleg", "COD": 2, "CPROVIN": null, "CCANT": "Deleg", "CPARR": "Deleg", "CODIGO": "Cabecera Cantonal", "PROVINCIA": null, "POP_1990": 0, "POP_1995": 0, "POP_2002": 0, "ORDEN": 0 }, "geometry": { "type": "Point", "coordinates": [ -78.919948522576846, -2.7740102564167 ] } },
{ "type": "Feature", "properties": { "AREA": 0.0, "PERIMETER": 0.0, "POBZ17_": 65, "POBZ17_ID": 65, "PUEBLOS_": 97, "PUEBLOS_ID": 177, "NUM": 177, "ID": 177, "COD1": 2, "COD2": 1, "NOMBRE": "Sevilla De Oro", "COD": 2, "CPROVIN": null, "CCANT": "Sevilla De Oro", "CPARR": "Sevilla De Oro", "CODIGO": "Cabecera Cantonal", "PROVINCIA": null, "POP_1990": 0, "POP_1995": 0, "POP_2002": 0, "ORDEN": 0 }, "geometry": { "type": "Point", "coordinates": [ -78.649192939557949, -2.807111025279481 ] } },
{ "type": "Feature", "properties": { "AREA": 0.0, "PERIMETER": 0.0, "POBZ17_": 66, "POBZ17_ID": 66, "PUEBLOS_": 98, "PUEBLOS_ID": 178, "NUM": 178, "ID": 178, "COD1": 2, "COD2": 1, "NOMBRE": "Gulaceo", "COD": 2, "CPROVIN": null, "CCANT": "Gulaceo", "CPARR": null, "CODIGO": "Cabecera Cantonal", "PROVINCIA": null, "POP_1990": 0, "POP_1995": 0, "POP_2002": 0, "ORDEN": 0 }, "geometry": { "type": "Point", "coordinates": [ -78.782038399078203, -2.892223325909889 ] } },
{ "type": "Feature", "properties": { "AREA": 0.0, "PERIMETER": 0.0, "POBZ17_": 67, "POBZ17_ID": 67, "PUEBLOS_": 99, "PUEBLOS_ID": 179, "NUM": 179, "ID": 179, "COD1": 2, "COD2": 1, "NOMBRE": "Chordeleg", "COD": 2, "CPROVIN": null, "CCANT": "Chordeleg", "CPARR": null, "CODIGO": "Cabecera Cantonal", "PROVINCIA": null, "POP_1990": 0, "POP_1995": 0, "POP_2002": 0, "ORDEN": 0 }, "geometry": { "type": "Point", "coordinates": [ -78.773974228520515, -2.925330955555608 ] } },
{ "type": "Feature", "properties": { "AREA": 0.0, "PERIMETER": 0.0, "POBZ17_": 68, "POBZ17_ID": 68, "PUEBLOS_": 100, "PUEBLOS_ID": 180, "NUM": 180, "ID": 180, "COD1": 2, "COD2": 1, "NOMBRE": "Grl. Leonidas Plaza Gutierres", "COD": 2, "CPROVIN": null, "CCANT": "Grl. Leonidas Plaza Gutierres", "CPARR": "Grl. Leonidas Plaza Gutierres", "CODIGO": "Cabecera Cantonal", "PROVINCIA": null, "POP_1990": 0, "POP_1995": 0, "POP_2002": 0, "ORDEN": 0 }, "geometry": { "type": "Point", "coordinates": [ -78.390950346251557, -2.943591528669972 ] } },
{ "type": "Feature", "properties": { "AREA": 0.0, "PERIMETER": 0.0, "POBZ17_": 69, "POBZ17_ID": 69, "PUEBLOS_": 101, "PUEBLOS_ID": 181, "NUM": 181, "ID": 181, "COD1": 2, "COD2": 1, "NOMBRE": "Sigsig", "COD": 2, "CPROVIN": null, "CCANT": "Sigsig", "CPARR": "Sigsig", "CODIGO": "Cabecera Cantonal", "PROVINCIA": null, "POP_1990": 0, "POP_1995": 0, "POP_2002": 0, "ORDEN": 0 }, "geometry": { "type": "Point", "coordinates": [ -78.78902044705579, -3.053814633813315 ] } },
{ "type": "Feature", "properties": { "AREA": 0.0, "PERIMETER": 0.0, "POBZ17_": 70, "POBZ17_ID": 70, "PUEBLOS_": 103, "PUEBLOS_ID": 189, "NUM": 189, "ID": 189, "COD1": 2, "COD2": 1, "NOMBRE": "Salinas", "COD": 2, "CPROVIN": null, "CCANT": null, "CPARR": "Salinas", "CODIGO": "Cabecera Parroquial", "PROVINCIA": null, "POP_1990": 20700, "POP_1995": 27700, "POP_2002": 32400, "ORDEN": 0 }, "geometry": { "type": "Point", "coordinates": [ -80.973584287474239, -2.211717809205917 ] } },
{ "type": "Feature", "properties": { "AREA": 0.0, "PERIMETER": 0.0, "POBZ17_": 71, "POBZ17_ID": 71, "PUEBLOS_": 104, "PUEBLOS_ID": 192, "NUM": 192, "ID": 192, "COD1": 2, "COD2": 1, "NOMBRE": "Eloy Alfaro", "COD": 2, "CPROVIN": null, "CCANT": "Eloy Alfaro", "CPARR": "Eloy Alfaro", "CODIGO": "Cabecera Cantonal", "PROVINCIA": null, "POP_1990": 88100, "POP_1995": 120400, "POP_2002": 140900, "ORDEN": 8 }, "geometry": { "type": "Point", "coordinates": [ -79.844342087057754, -2.169285289959526 ] } },
{ "type": "Feature", "properties": { "AREA": 0.0, "PERIMETER": 0.0, "POBZ17_": 72, "POBZ17_ID": 72, "PUEBLOS_": 106, "PUEBLOS_ID": 196, "NUM": 196, "ID": 196, "COD1": 2, "COD2": 1, "NOMBRE": "Cumanda", "COD": 2, "CPROVIN": null, "CCANT": "Cumanda", "CPARR": null, "CODIGO": "Cabecera Cantonal", "PROVINCIA": null, "POP_1990": 0, "POP_1995": 0, "POP_2002": 0, "ORDEN": 0 }, "geometry": { "type": "Point", "coordinates": [ -79.133784398766053, -2.213191718881966 ] } },
{ "type": "Feature", "properties": { "AREA": 0.0, "PERIMETER": 0.0, "POBZ17_": 73, "POBZ17_ID": 73, "PUEBLOS_": 109, "PUEBLOS_ID": 200, "NUM": 200, "ID": 200, "COD1": 0, "COD2": 1, "NOMBRE": "Nueva Loja", "COD": 0, "CPROVIN": "SUCUMBIOS", "CCANT": "Nueva Loja", "CPARR": "Nueva Loja", "CODIGO": "Capital Provincial", "PROVINCIA": null, "POP_1990": 15400, "POP_1995": 19300, "POP_2002": 23700, "ORDEN": 0 }, "geometry": { "type": "Point", "coordinates": [ -76.883079962529166, 0.086869234657758 ] } },
{ "type": "Feature", "properties": { "AREA": 0.0, "PERIMETER": 0.0, "POBZ17_": 74, "POBZ17_ID": 74, "PUEBLOS_": 111, "PUEBLOS_ID": 202, "NUM": 202, "ID": 202, "COD1": 0, "COD2": 1, "NOMBRE": "La Joya De Los Sachas", "COD": 0, "CPROVIN": null, "CCANT": "La Joya De Los Sachas", "CPARR": "La Joya De Los Sachas", "CODIGO": "Cabecera Cantonal", "PROVINCIA": null, "POP_1990": 0, "POP_1995": 0, "POP_2002": 0, "ORDEN": 0 }, "geometry": { "type": "Point", "coordinates": [ -76.856157103885465, -0.296451421055781 ] } },
{ "type": "Feature", "properties": { "AREA": 0.0, "PERIMETER": 0.0, "POBZ17_": 75, "POBZ17_ID": 75, "PUEBLOS_": 112, "PUEBLOS_ID": 203, "NUM": 203, "ID": 203, "COD1": 0, "COD2": 1, "NOMBRE": "Prto. Francisco De Orelllana", "COD": 0, "CPROVIN": "ORELLANA", "CCANT": "Prto. Francisco De Orelllana", "CPARR": "Prto. Francisco De Orelllana", "CODIGO": "Capital Provincial", "PROVINCIA": null, "POP_1990": 0, "POP_1995": 0, "POP_2002": 0, "ORDEN": 0 }, "geometry": { "type": "Point", "coordinates": [ -76.988125025462125, -0.465482926641685 ] } },
{ "type": "Feature", "properties": { "AREA": 0.0, "PERIMETER": 0.0, "POBZ17_": 76, "POBZ17_ID": 76, "PUEBLOS_": 116, "PUEBLOS_ID": 249, "NUM": 249, "ID": 249, "COD1": 3, "COD2": 1, "NOMBRE": "La Tola", "COD": 3, "CPROVIN": null, "CCANT": null, "CPARR": "La Tola", "CODIGO": "Cabecera Parroquial", "PROVINCIA": "ESMERALDAS", "POP_1990": 0, "POP_1995": 0, "POP_2002": 0, "ORDEN": 0 }, "geometry": { "type": "Point", "coordinates": [ -79.047197748229436, 1.206687189900169 ] } },
{ "type": "Feature", "properties": { "AREA": 0.0, "PERIMETER": 0.0, "POBZ17_": 77, "POBZ17_ID": 77, "PUEBLOS_": 125, "PUEBLOS_ID": 258, "NUM": 258, "ID": 258, "COD1": 3, "COD2": 1, "NOMBRE": "Lagarto", "COD": 3, "CPROVIN": null, "CCANT": null, "CPARR": "Lagarto", "CODIGO": "Cabecera Parroquial", "PROVINCIA": "ESMERALDAS", "POP_1990": 0, "POP_1995": 0, "POP_2002": 0, "ORDEN": 0 }, "geometry": { "type": "Point", "coordinates": [ -79.280462311861797, 1.041911138385262 ] } },
{ "type": "Feature", "properties": { "AREA": 0.0, "PERIMETER": 0.0, "POBZ17_": 78, "POBZ17_ID": 78, "PUEBLOS_": 127, "PUEBLOS_ID": 260, "NUM": 260, "ID": 260, "COD1": 3, "COD2": 1, "NOMBRE": "Montalvo", "COD": 3, "CPROVIN": null, "CCANT": null, "CPARR": "Montalvo", "CODIGO": "Cabecera Parroquial", "PROVINCIA": "ESMERALDAS", "POP_1990": 0, "POP_1995": 0, "POP_2002": 0, "ORDEN": 0 }, "geometry": { "type": "Point", "coordinates": [ -79.312803596063148, 1.048711575448321 ] } },
{ "type": "Feature", "properties": { "AREA": 0.0, "PERIMETER": 0.0, "POBZ17_": 79, "POBZ17_ID": 79, "PUEBLOS_": 133, "PUEBLOS_ID": 266, "NUM": 266, "ID": 266, "COD1": 3, "COD2": 1, "NOMBRE": "Rocafuerte", "COD": 3, "CPROVIN": null, "CCANT": null, "CPARR": "Rocafuerte", "CODIGO": "Cabecera Parroquial", "PROVINCIA": "ESMERALDAS", "POP_1990": 0, "POP_1995": 0, "POP_2002": 0, "ORDEN": 0 }, "geometry": { "type": "Point", "coordinates": [ -79.378409933903512, 1.04870552055728 ] } },
{ "type": "Feature", "properties": { "AREA": 0.0, "PERIMETER": 0.0, "POBZ17_": 80, "POBZ17_ID": 80, "PUEBLOS_": 135, "PUEBLOS_ID": 268, "NUM": 268, "ID": 268, "COD1": 3, "COD2": 1, "NOMBRE": "Rio Verde", "COD": 3, "CPROVIN": null, "CCANT": "Rio Verde", "CPARR": "Rio Verde", "CODIGO": "Cabecera Cantonal", "PROVINCIA": "ESMERALDAS", "POP_1990": 0, "POP_1995": 0, "POP_2002": 0, "ORDEN": 0 }, "geometry": { "type": "Point", "coordinates": [ -79.411032882695039, 1.071916287423522 ] } },
{ "type": "Feature", "properties": { "AREA": 0.0, "PERIMETER": 0.0, "POBZ17_": 81, "POBZ17_ID": 81, "PUEBLOS_": 171, "PUEBLOS_ID": 304, "NUM": 304, "ID": 304, "COD1": 3, "COD2": 1, "NOMBRE": "Colon Eloy Alfaro", "COD": 3, "CPROVIN": null, "CCANT": null, "CPARR": "Colon Eloy Alfaro", "CODIGO": "Cabecera Parroquial", "PROVINCIA": "ESMERALDAS", "POP_1990": 0, "POP_1995": 0, "POP_2002": 0, "ORDEN": 0 }, "geometry": { "type": "Point", "coordinates": [ -78.909746431988353, 1.018536604674346 ] } },
{ "type": "Feature", "properties": { "AREA": 0.0, "PERIMETER": 0.0, "POBZ17_": 82, "POBZ17_ID": 82, "PUEBLOS_": 194, "PUEBLOS_ID": 327, "NUM": 327, "ID": 327, "COD1": 3, "COD2": 1, "NOMBRE": "Tobar Donoso", "COD": 3, "CPROVIN": null, "CCANT": null, "CPARR": "Tobar Donoso", "CODIGO": "Cabecera Parroquial", "PROVINCIA": null, "POP_1990": 0, "POP_1995": 0, "POP_2002": 0, "ORDEN": 0 }, "geometry": { "type": "Point", "coordinates": [ -78.48730923272565, 1.185079937970447 ] } },
{ "type": "Feature", "properties": { "AREA": 0.0, "PERIMETER": 0.0, "POBZ17_": 83, "POBZ17_ID": 83, "PUEBLOS_": 207, "PUEBLOS_ID": 340, "NUM": 340, "ID": 340, "COD1": 3, "COD2": 1, "NOMBRE": "San Jose", "COD": 3, "CPROVIN": null, "CCANT": null, "CPARR": "San Jose", "CODIGO": "Cabecera Parroquial", "PROVINCIA": "ESMERALDAS", "POP_1990": 0, "POP_1995": 0, "POP_2002": 0, "ORDEN": 0 }, "geometry": { "type": "Point", "coordinates": [ -80.079780194420835, 0.762948234375942 ] } },
{ "type": "Feature", "properties": { "AREA": 0.0, "PERIMETER": 0.0, "POBZ17_": 84, "POBZ17_ID": 84, "PUEBLOS_": 208, "PUEBLOS_ID": 341, "NUM": 341, "ID": 341, "COD1": 3, "COD2": 1, "NOMBRE": "Galera", "COD": 3, "CPROVIN": null, "CCANT": null, "CPARR": "Galera", "CODIGO": "Cabecera Parroquial", "PROVINCIA": "ESMERALDAS", "POP_1990": 0, "POP_1995": 0, "POP_2002": 0, "ORDEN": 0 }, "geometry": { "type": "Point", "coordinates": [ -80.046913052029225, 0.816094892612957 ] } },
{ "type": "Feature", "properties": { "AREA": 0.0, "PERIMETER": 0.0, "POBZ17_": 85, "POBZ17_ID": 85, "PUEBLOS_": 219, "PUEBLOS_ID": 353, "NUM": 353, "ID": 353, "COD1": 3, "COD2": 1, "NOMBRE": "Camarones", "COD": 3, "CPROVIN": null, "CCANT": null, "CPARR": "Camarones", "CODIGO": "Cabecera Parroquial", "PROVINCIA": "ESMERALDAS", "POP_1990": 0, "POP_1995": 0, "POP_2002": 0, "ORDEN": 0 }, "geometry": { "type": "Point", "coordinates": [ -79.548455465771838, 0.992576763958622 ] } },
{ "type": "Feature", "properties": { "AREA": 0.0, "PERIMETER": 0.0, "POBZ17_": 86, "POBZ17_ID": 86, "PUEBLOS_": 247, "PUEBLOS_ID": 381, "NUM": 381, "ID": 381, "COD1": 3, "COD2": 1, "NOMBRE": "Anchayacu", "COD": 3, "CPROVIN": null, "CCANT": null, "CPARR": "Anchayacu", "CODIGO": "Cabecera Parroquial", "PROVINCIA": "ESMERALDAS", "POP_1990": 0, "POP_1995": 0, "POP_2002": 0, "ORDEN": 0 }, "geometry": { "type": "Point", "coordinates": [ -79.057926437301475, 0.955608226694286 ] } },
{ "type": "Feature", "properties": { "AREA": 0.0, "PERIMETER": 0.0, "POBZ17_": 87, "POBZ17_ID": 87, "PUEBLOS_": 248, "PUEBLOS_ID": 382, "NUM": 382, "ID": 382, "COD1": 3, "COD2": 1, "NOMBRE": "San  Francisco", "COD": 3, "CPROVIN": null, "CCANT": null, "CPARR": "San  Francisco", "CODIGO": "Cabecera Parroquial", "PROVINCIA": "ESMERALDAS", "POP_1990": 0, "POP_1995": 0, "POP_2002": 0, "ORDEN": 0 }, "geometry": { "type": "Point", "coordinates": [ -79.007564159045998, 0.976284392304809 ] } },
{ "type": "Feature", "properties": { "AREA": 0.0, "PERIMETER": 0.0, "POBZ17_": 88, "POBZ17_ID": 88, "PUEBLOS_": 263, "PUEBLOS_ID": 397, "NUM": 397, "ID": 397, "COD1": 3, "COD2": 1, "NOMBRE": "Santo Domingo De Onzole", "COD": 3, "CPROVIN": null, "CCANT": null, "CPARR": "Santo Domingo De Onzole", "CODIGO": "Cabecera Parroquial", "PROVINCIA": "ESMERALDAS", "POP_1990": 0, "POP_1995": 0, "POP_2002": 0, "ORDEN": 0 }, "geometry": { "type": "Point", "coordinates": [ -79.070905167420023, 0.800181616073796 ] } },
{ "type": "Feature", "properties": { "AREA": 0.0, "PERIMETER": 0.0, "POBZ17_": 89, "POBZ17_ID": 89, "PUEBLOS_": 269, "PUEBLOS_ID": 403, "NUM": 403, "ID": 403, "COD1": 3, "COD2": 1, "NOMBRE": "Chumunde", "COD": 3, "CPROVIN": null, "CCANT": null, "CPARR": "Chumunde", "CODIGO": "Cabecera Parroquial", "PROVINCIA": "ESMERALDAS", "POP_1990": 0, "POP_1995": 0, "POP_2002": 0, "ORDEN": 0 }, "geometry": { "type": "Point", "coordinates": [ -79.417351711811264, 0.832349148469232 ] } },
{ "type": "Feature", "properties": { "AREA": 0.0, "PERIMETER": 0.0, "POBZ17_": 90, "POBZ17_ID": 90, "PUEBLOS_": 277, "PUEBLOS_ID": 411, "NUM": 411, "ID": 411, "COD1": 3, "COD2": 1, "NOMBRE": "Tachina", "COD": 3, "CPROVIN": null, "CCANT": null, "CPARR": "Tachina", "CODIGO": "Cabecera Parroquial", "PROVINCIA": "ESMERALDAS", "POP_1990": 0, "POP_1995": 0, "POP_2002": 0, "ORDEN": 0 }, "geometry": { "type": "Point", "coordinates": [ -79.628511722776537, 0.962583617747701 ] } },
{ "type": "Feature", "properties": { "AREA": 0.0, "PERIMETER": 0.0, "POBZ17_": 91, "POBZ17_ID": 91, "PUEBLOS_": 278, "PUEBLOS_ID": 412, "NUM": 412, "ID": 412, "COD1": 3, "COD2": 1, "NOMBRE": "San Mateo", "COD": 3, "CPROVIN": null, "CCANT": null, "CPARR": "San Mateo", "CODIGO": "Cabecera Parroquial", "PROVINCIA": "ESMERALDAS", "POP_1990": 0, "POP_1995": 0, "POP_2002": 0, "ORDEN": 0 }, "geometry": { "type": "Point", "coordinates": [ -79.630518775336157, 0.891221862030344 ] } },
{ "type": "Feature", "properties": { "AREA": 0.0, "PERIMETER": 0.0, "POBZ17_": 92, "POBZ17_ID": 92, "PUEBLOS_": 281, "PUEBLOS_ID": 415, "NUM": 415, "ID": 415, "COD1": 3, "COD2": 1, "NOMBRE": "Chinca", "COD": 3, "CPROVIN": null, "CCANT": null, "CPARR": "Chinca", "CODIGO": "Cabecera Parroquial", "PROVINCIA": "ESMERALDAS", "POP_1990": 0, "POP_1995": 0, "POP_2002": 0, "ORDEN": 0 }, "geometry": { "type": "Point", "coordinates": [ -79.566744839841206, 0.772714709117897 ] } },
{ "type": "Feature", "properties": { "AREA": 0.0, "PERIMETER": 0.0, "POBZ17_": 93, "POBZ17_ID": 93, "PUEBLOS_": 286, "PUEBLOS_ID": 420, "NUM": 420, "ID": 420, "COD1": 3, "COD2": 1, "NOMBRE": "Majua", "COD": 3, "CPROVIN": null, "CCANT": null, "CPARR": "Majua", "CODIGO": "Cabecera Parroquial", "PROVINCIA": "ESMERALDAS", "POP_1990": 0, "POP_1995": 0, "POP_2002": 0, "ORDEN": 0 }, "geometry": { "type": "Point", "coordinates": [ -79.530024633906407, 0.707763705267813 ] } },
{ "type": "Feature", "properties": { "AREA": 0.0, "PERIMETER": 0.0, "POBZ17_": 94, "POBZ17_ID": 94, "PUEBLOS_": 300, "PUEBLOS_ID": 434, "NUM": 434, "ID": 434, "COD1": 3, "COD2": 1, "NOMBRE": "Cube", "COD": 3, "CPROVIN": null, "CCANT": null, "CPARR": "Cube", "CODIGO": "Cabecera Parroquial", "PROVINCIA": "ESMERALDAS", "POP_1990": 0, "POP_1995": 0, "POP_2002": 0, "ORDEN": 0 }, "geometry": { "type": "Point", "coordinates": [ -79.638020751285751, 0.578548748601977 ] } },
{ "type": "Feature", "properties": { "AREA": 0.0, "PERIMETER": 0.0, "POBZ17_": 95, "POBZ17_ID": 95, "PUEBLOS_": 317, "PUEBLOS_ID": 451, "NUM": 451, "ID": 451, "COD1": 3, "COD2": 1, "NOMBRE": "Chura", "COD": 3, "CPROVIN": null, "CCANT": null, "CPARR": "Chura", "CODIGO": "Cabecera Parroquial", "PROVINCIA": "ESMERALDAS", "POP_1990": 0, "POP_1995": 0, "POP_2002": 0, "ORDEN": 0 }, "geometry": { "type": "Point", "coordinates": [ -79.48363825884249, 0.587642508581658 ] } },
{ "type": "Feature", "properties": { "AREA": 0.0, "PERIMETER": 0.0, "POBZ17_": 96, "POBZ17_ID": 96, "PUEBLOS_": 392, "PUEBLOS_ID": 526, "NUM": 526, "ID": 526, "COD1": 3, "COD2": 1, "NOMBRE": "San Gregorio", "COD": 3, "CPROVIN": null, "CCANT": null, "CPARR": "San Gregorio", "CODIGO": "Cabecera Parroquial", "PROVINCIA": "ESMERALDAS", "POP_1990": 0, "POP_1995": 0, "POP_2002": 0, "ORDEN": 0 }, "geometry": { "type": "Point", "coordinates": [ -79.969880384933305, 0.530136518986087 ] } },
{ "type": "Feature", "properties": { "AREA": 0.0, "PERIMETER": 0.0, "POBZ17_": 97, "POBZ17_ID": 97, "PUEBLOS_": 456, "PUEBLOS_ID": 590, "NUM": 590, "ID": 590, "COD1": 3, "COD2": 1, "NOMBRE": "Chontaduro", "COD": 3, "CPROVIN": null, "CCANT": null, "CPARR": "Chontaduro", "CODIGO": "Cabecera Parroquial", "PROVINCIA": "ESMERALDAS", "POP_1990": 0, "POP_1995": 0, "POP_2002": 0, "ORDEN": 0 }, "geometry": { "type": "Point", "coordinates": [ -79.745862251487225, 0.736050203119144 ] } },
{ "type": "Feature", "properties": { "AREA": 0.0, "PERIMETER": 0.0, "POBZ17_": 98, "POBZ17_ID": 98, "PUEBLOS_": 459, "PUEBLOS_ID": 593, "NUM": 593, "ID": 593, "COD1": 3, "COD2": 1, "NOMBRE": "Vuelta Larga", "COD": 3, "CPROVIN": null, "CCANT": null, "CPARR": "Vuelta Larga", "CODIGO": "Cabecera Parroquial", "PROVINCIA": "ESMERALDAS", "POP_1990": 0, "POP_1995": 0, "POP_2002": 0, "ORDEN": 0 }, "geometry": { "type": "Point", "coordinates": [ -79.69877199683107, 0.896764812858382 ] } },
{ "type": "Feature", "properties": { "AREA": 0.0, "PERIMETER": 0.0, "POBZ17_": 99, "POBZ17_ID": 99, "PUEBLOS_": 461, "PUEBLOS_ID": 595, "NUM": 595, "ID": 595, "COD1": 3, "COD2": 1, "NOMBRE": "Tabiazo", "COD": 3, "CPROVIN": null, "CCANT": null, "CPARR": "Tabiazo", "CODIGO": "Cabecera Parroquial", "PROVINCIA": "ESMERALDAS", "POP_1990": 0, "POP_1995": 0, "POP_2002": 0, "ORDEN": 0 }, "geometry": { "type": "Point", "coordinates": [ -79.70340361984303, 0.821783814880861 ] } },
{ "type": "Feature", "properties": { "AREA": 0.0, "PERIMETER": 0.0, "POBZ17_": 100, "POBZ17_ID": 100, "PUEBLOS_": 465, "PUEBLOS_ID": 599, "NUM": 599, "ID": 599, "COD1": 3, "COD2": 1, "NOMBRE": "Coronel Carlos  Concha", "COD": 3, "CPROVIN": null, "CCANT": null, "CPARR": "Coronel Carlos  Concha", "CODIGO": "Cabecera Parroquial", "PROVINCIA": "ESMERALDAS", "POP_1990": 0, "POP_1995": 0, "POP_2002": 0, "ORDEN": 0 }, "geometry": { "type": "Point", "coordinates": [ -79.687527462430864, 0.712516027002725 ] } },
{ "type": "Feature", "properties": { "AREA": 0.0, "PERIMETER": 0.0, "POBZ17_": 101, "POBZ17_ID": 101, "PUEBLOS_": 470, "PUEBLOS_ID": 604, "NUM": 604, "ID": 604, "COD1": 3, "COD2": 1, "NOMBRE": "Zaracay", "COD": 3, "CPROVIN": null, "CCANT": null, "CPARR": "Zaracay", "CODIGO": "Cabecera Parroquial", "PROVINCIA": null, "POP_1990": 0, "POP_1995": 0, "POP_2002": 0, "ORDEN": 0 }, "geometry": { "type": "Point", "coordinates": [ -79.583756236756457, 0.017593659458371 ] } },
{ "type": "Feature", "properties": { "AREA": 0.0, "PERIMETER": 0.0, "POBZ17_": 102, "POBZ17_ID": 102, "PUEBLOS_": 531, "PUEBLOS_ID": 665, "NUM": 665, "ID": 665, "COD1": 3, "COD2": 1, "NOMBRE": "Malimpia", "COD": 3, "CPROVIN": null, "CCANT": null, "CPARR": "Malimpia", "CODIGO": "Cabecera Parroquial", "PROVINCIA": "ESMERALDAS", "POP_1990": 0, "POP_1995": 0, "POP_2002": 0, "ORDEN": 0 }, "geometry": { "type": "Point", "coordinates": [ -79.42882929697754, 0.414074814237261 ] } },
{ "type": "Feature", "properties": { "AREA": 0.0, "PERIMETER": 0.0, "POBZ17_": 103, "POBZ17_ID": 103, "PUEBLOS_": 660, "PUEBLOS_ID": 794, "NUM": 794, "ID": 794, "COD1": 3, "COD2": 1, "NOMBRE": "San Jose De Cayapas", "COD": 3, "CPROVIN": null, "CCANT": null, "CPARR": "San Jose De Cayapas", "CODIGO": "Cabecera Parroquial", "PROVINCIA": "ESMERALDAS", "POP_1990": 0, "POP_1995": 0, "POP_2002": 0, "ORDEN": 0 }, "geometry": { "type": "Point", "coordinates": [ -78.955241926004632, 0.866940743414212 ] } },
{ "type": "Feature", "properties": { "AREA": 0.0, "PERIMETER": 0.0, "POBZ17_": 104, "POBZ17_ID": 104, "PUEBLOS_": 666, "PUEBLOS_ID": 800, "NUM": 800, "ID": 800, "COD1": 3, "COD2": 1, "NOMBRE": "Telembi", "COD": 3, "CPROVIN": null, "CCANT": null, "CPARR": "Telembi", "CODIGO": "Cabecera Parroquial", "PROVINCIA": "ESMERALDAS", "POP_1990": 0, "POP_1995": 0, "POP_2002": 0, "ORDEN": 0 }, "geometry": { "type": "Point", "coordinates": [ -78.930614614883595, 0.766748924100268 ] } },
{ "type": "Feature", "properties": { "AREA": 0.0, "PERIMETER": 0.0, "POBZ17_": 105, "POBZ17_ID": 105, "PUEBLOS_": 674, "PUEBLOS_ID": 808, "NUM": 808, "ID": 808, "COD1": 3, "COD2": 1, "NOMBRE": "Timbire", "COD": 3, "CPROVIN": null, "CCANT": null, "CPARR": "Timbire", "CODIGO": "Cabecera Parroquial", "PROVINCIA": "ESMERALDAS", "POP_1990": 0, "POP_1995": 0, "POP_2002": 0, "ORDEN": 0 }, "geometry": { "type": "Point", "coordinates": [ -78.864839729743125, 0.958745815310604 ] } },
{ "type": "Feature", "properties": { "AREA": 0.0, "PERIMETER": 0.0, "POBZ17_": 106, "POBZ17_ID": 106, "PUEBLOS_": 675, "PUEBLOS_ID": 809, "NUM": 809, "ID": 809, "COD1": 3, "COD2": 1, "NOMBRE": "Selva Alegre", "COD": 3, "CPROVIN": null, "CCANT": null, "CPARR": "Selva Alegre", "CODIGO": "Cabecera Parroquial", "PROVINCIA": "ESMERALDAS", "POP_1990": 0, "POP_1995": 0, "POP_2002": 0, "ORDEN": 0 }, "geometry": { "type": "Point", "coordinates": [ -78.860155399653038, 0.931891248956973 ] } },
{ "type": "Feature", "properties": { "AREA": 0.0, "PERIMETER": 0.0, "POBZ17_": 107, "POBZ17_ID": 107, "PUEBLOS_": 683, "PUEBLOS_ID": 817, "NUM": 817, "ID": 817, "COD1": 3, "COD2": 1, "NOMBRE": "Luis Vargas Torres", "COD": 3, "CPROVIN": null, "CCANT": null, "CPARR": "Luis Vargas Torres", "CODIGO": "Cabecera Parroquial", "PROVINCIA": "ESMERALDAS", "POP_1990": 0, "POP_1995": 0, "POP_2002": 0, "ORDEN": 0 }, "geometry": { "type": "Point", "coordinates": [ -78.794527028186764, 0.874171283724379 ] } },
{ "type": "Feature", "properties": { "AREA": 0.0, "PERIMETER": 0.0, "POBZ17_": 108, "POBZ17_ID": 108, "PUEBLOS_": 700, "PUEBLOS_ID": 834, "NUM": 834, "ID": 834, "COD1": 3, "COD2": 1, "NOMBRE": "Lita", "COD": 3, "CPROVIN": null, "CCANT": null, "CPARR": "Lita", "CODIGO": "Cabecera Parroquial", "PROVINCIA": null, "POP_1990": 0, "POP_1995": 0, "POP_2002": 0, "ORDEN": 0 }, "geometry": { "type": "Point", "coordinates": [ -78.450948986202661, 0.868616565240263 ] } },
{ "type": "Feature", "properties": { "AREA": 0.0, "PERIMETER": 0.0, "POBZ17_": 109, "POBZ17_ID": 109, "PUEBLOS_": 718, "PUEBLOS_ID": 852, "NUM": 852, "ID": 852, "COD1": 3, "COD2": 1, "NOMBRE": "Gualchan", "COD": 3, "CPROVIN": null, "CCANT": null, "CPARR": "Gualchan", "CODIGO": "Cabecera Parroquial", "PROVINCIA": null, "POP_1990": 0, "POP_1995": 0, "POP_2002": 0, "ORDEN": 0 }, "geometry": { "type": "Point", "coordinates": [ -78.206859699851265, 0.783949651655712 ] } },
{ "type": "Feature", "properties": { "AREA": 0.0, "PERIMETER": 0.0, "POBZ17_": 110, "POBZ17_ID": 110, "PUEBLOS_": 719, "PUEBLOS_ID": 853, "NUM": 853, "ID": 853, "COD1": 3, "COD2": 1, "NOMBRE": "Jijon Y Caamaño", "COD": 3, "CPROVIN": null, "CCANT": null, "CPARR": "Jijon Y Caamaño", "CODIGO": "Cabecera Parroquial", "PROVINCIA": null, "POP_1990": 0, "POP_1995": 0, "POP_2002": 0, "ORDEN": 0 }, "geometry": { "type": "Point", "coordinates": [ -78.256413248175619, 0.763740587597979 ] } },
{ "type": "Feature", "properties": { "AREA": 0.0, "PERIMETER": 0.0, "POBZ17_": 111, "POBZ17_ID": 111, "PUEBLOS_": 732, "PUEBLOS_ID": 866, "NUM": 866, "ID": 866, "COD1": 3, "COD2": 1, "NOMBRE": "San Francisco", "COD": 3, "CPROVIN": null, "CCANT": null, "CPARR": "San Francisco", "CODIGO": "Cabecera Parroquial", "PROVINCIA": null, "POP_1990": 0, "POP_1995": 0, "POP_2002": 0, "ORDEN": 0 }, "geometry": { "type": "Point", "coordinates": [ -78.184551927237749, 0.635648816796104 ] } },
{ "type": "Feature", "properties": { "AREA": 0.0, "PERIMETER": 0.0, "POBZ17_": 112, "POBZ17_ID": 112, "PUEBLOS_": 738, "PUEBLOS_ID": 872, "NUM": 872, "ID": 872, "COD1": 3, "COD2": 1, "NOMBRE": "Juan Montalvo", "COD": 3, "CPROVIN": null, "CCANT": null, "CPARR": "Juan Montalvo", "CODIGO": "Cabecera Parroquial", "PROVINCIA": null, "POP_1990": 0, "POP_1995": 0, "POP_2002": 0, "ORDEN": 0 }, "geometry": { "type": "Point", "coordinates": [ -78.088939607951772, 0.585266609733936 ] } },
{ "type": "Feature", "properties": { "AREA": 0.0, "PERIMETER": 0.0, "POBZ17_": 113, "POBZ17_ID": 113, "PUEBLOS_": 749, "PUEBLOS_ID": 883, "NUM": 883, "ID": 883, "COD1": 3, "COD2": 1, "NOMBRE": "El Placer", "COD": 3, "CPROVIN": null, "CCANT": null, "CPARR": "El Placer", "CODIGO": "Cabecera Parroquial", "PROVINCIA": null, "POP_1990": 0, "POP_1995": 0, "POP_2002": 0, "ORDEN": 0 }, "geometry": { "type": "Point", "coordinates": [ -78.052233226446631, 0.767668413048774 ] } },
{ "type": "Feature", "properties": { "AREA": 0.0, "PERIMETER": 0.0, "POBZ17_": 114, "POBZ17_ID": 114, "PUEBLOS_": 750, "PUEBLOS_ID": 884, "NUM": 884, "ID": 884, "COD1": 3, "COD2": 1, "NOMBRE": "El Goaltal", "COD": 3, "CPROVIN": null, "CCANT": null, "CPARR": "El Goaltal", "CODIGO": "Cabecera Parroquial", "PROVINCIA": null, "POP_1990": 0, "POP_1995": 0, "POP_2002": 0, "ORDEN": 0 }, "geometry": { "type": "Point", "coordinates": [ -78.156848377205804, 0.805601891404835 ] } },
{ "type": "Feature", "properties": { "AREA": 0.0, "PERIMETER": 0.0, "POBZ17_": 115, "POBZ17_ID": 115, "PUEBLOS_": 757, "PUEBLOS_ID": 891, "NUM": 891, "ID": 891, "COD1": 3, "COD2": 1, "NOMBRE": "El Chical", "COD": 3, "CPROVIN": null, "CCANT": null, "CPARR": "El Chical", "CODIGO": "Cabecera Parroquial", "PROVINCIA": null, "POP_1990": 0, "POP_1995": 0, "POP_2002": 0, "ORDEN": 0 }, "geometry": { "type": "Point", "coordinates": [ -78.18789200290135, 0.93493354784603 ] } },
{ "type": "Feature", "properties": { "AREA": 0.0, "PERIMETER": 0.0, "POBZ17_": 116, "POBZ17_ID": 116, "PUEBLOS_": 766, "PUEBLOS_ID": 900, "NUM": 900, "ID": 900, "COD1": 3, "COD2": 1, "NOMBRE": "Maldonado", "COD": 3, "CPROVIN": null, "CCANT": null, "CPARR": "Maldonado", "CODIGO": "Cabecera Parroquial", "PROVINCIA": null, "POP_1990": 0, "POP_1995": 0, "POP_2002": 0, "ORDEN": 0 }, "geometry": { "type": "Point", "coordinates": [ -78.10891944834384, 0.912007882407287 ] } },
{ "type": "Feature", "properties": { "AREA": 0.0, "PERIMETER": 0.0, "POBZ17_": 117, "POBZ17_ID": 117, "PUEBLOS_": 776, "PUEBLOS_ID": 910, "NUM": 910, "ID": 910, "COD1": 3, "COD2": 1, "NOMBRE": "La Cortadera", "COD": 3, "CPROVIN": null, "CCANT": null, "CPARR": "La Cortadera", "CODIGO": "Cabecera Parroquial", "PROVINCIA": null, "POP_1990": 0, "POP_1995": 0, "POP_2002": 0, "ORDEN": 0 }, "geometry": { "type": "Point", "coordinates": [ -78.07052087822197, 0.804997366163648 ] } },
{ "type": "Feature", "properties": { "AREA": 0.0, "PERIMETER": 0.0, "POBZ17_": 118, "POBZ17_ID": 118, "PUEBLOS_": 784, "PUEBLOS_ID": 918, "NUM": 918, "ID": 918, "COD1": 3, "COD2": 1, "NOMBRE": "La Merced De Buenos Aires", "COD": 3, "CPROVIN": null, "CCANT": null, "CPARR": "La Merced De Buenos Aires", "CODIGO": "Cabecera Parroquial", "PROVINCIA": null, "POP_1990": 0, "POP_1995": 0, "POP_2002": 0, "ORDEN": 0 }, "geometry": { "type": "Point", "coordinates": [ -78.318189922336472, 0.617918133243833 ] } },
{ "type": "Feature", "properties": { "AREA": 0.0, "PERIMETER": 0.0, "POBZ17_": 119, "POBZ17_ID": 119, "PUEBLOS_": 802, "PUEBLOS_ID": 936, "NUM": 936, "ID": 936, "COD1": 3, "COD2": 1, "NOMBRE": "Ambuqui", "COD": 3, "CPROVIN": null, "CCANT": null, "CPARR": "Ambuqui", "CODIGO": "Cabecera Parroquial", "PROVINCIA": null, "POP_1990": 0, "POP_1995": 0, "POP_2002": 0, "ORDEN": 0 }, "geometry": { "type": "Point", "coordinates": [ -78.010326302298893, 0.430998589364954 ] } },
{ "type": "Feature", "properties": { "AREA": 0.0, "PERIMETER": 0.0, "POBZ17_": 120, "POBZ17_ID": 120, "PUEBLOS_": 822, "PUEBLOS_ID": 956, "NUM": 956, "ID": 956, "COD1": 3, "COD2": 1, "NOMBRE": "Angochagua", "COD": 3, "CPROVIN": null, "CCANT": null, "CPARR": "Angochagua", "CODIGO": "Cabecera Parroquial", "PROVINCIA": null, "POP_1990": 0, "POP_1995": 0, "POP_2002": 0, "ORDEN": 0 }, "geometry": { "type": "Point", "coordinates": [ -78.078130511050716, 0.23775728457484 ] } },
{ "type": "Feature", "properties": { "AREA": 0.0, "PERIMETER": 0.0, "POBZ17_": 121, "POBZ17_ID": 121, "PUEBLOS_": 826, "PUEBLOS_ID": 960, "NUM": 960, "ID": 960, "COD1": 3, "COD2": 1, "NOMBRE": "La Esperanza", "COD": 3, "CPROVIN": null, "CCANT": null, "CPARR": "La Esperanza", "CODIGO": "Cabecera Parroquial", "PROVINCIA": null, "POP_1990": 0, "POP_1995": 0, "POP_2002": 0, "ORDEN": 0 }, "geometry": { "type": "Point", "coordinates": [ -78.117917910931766, 0.299028620522822 ] } },
{ "type": "Feature", "properties": { "AREA": 0.0, "PERIMETER": 0.0, "POBZ17_": 122, "POBZ17_ID": 122, "PUEBLOS_": 861, "PUEBLOS_ID": 995, "NUM": 995, "ID": 995, "COD1": 3, "COD2": 1, "NOMBRE": "Imbaya", "COD": 3, "CPROVIN": null, "CCANT": null, "CPARR": "Imbaya", "CODIGO": "Cabecera Parroquial", "PROVINCIA": null, "POP_1990": 0, "POP_1995": 0, "POP_2002": 0, "ORDEN": 0 }, "geometry": { "type": "Point", "coordinates": [ -78.150731915424629, 0.368976463350807 ] } },
{ "type": "Feature", "properties": { "AREA": 0.0, "PERIMETER": 0.0, "POBZ17_": 123, "POBZ17_ID": 123, "PUEBLOS_": 886, "PUEBLOS_ID": 1020, "NUM": 1020, "ID": 1020, "COD1": 3, "COD2": 1, "NOMBRE": "Dr. Miguel Egas C.", "COD": 3, "CPROVIN": null, "CCANT": null, "CPARR": "Dr. Miguel Egas C.", "CODIGO": "Cabecera Parroquial", "PROVINCIA": null, "POP_1990": 0, "POP_1995": 0, "POP_2002": 0, "ORDEN": 0 }, "geometry": { "type": "Point", "coordinates": [ -78.246642764010303, 0.246740043048383 ] } },
{ "type": "Feature", "properties": { "AREA": 0.0, "PERIMETER": 0.0, "POBZ17_": 124, "POBZ17_ID": 124, "PUEBLOS_": 891, "PUEBLOS_ID": 1025, "NUM": 1025, "ID": 1025, "COD1": 3, "COD2": 1, "NOMBRE": "Eugenio Espejo", "COD": 3, "CPROVIN": null, "CCANT": null, "CPARR": "Eugenio Espejo", "CODIGO": "Cabecera Parroquial", "PROVINCIA": null, "POP_1990": 0, "POP_1995": 0, "POP_2002": 0, "ORDEN": 0 }, "geometry": { "type": "Point", "coordinates": [ -78.246932898286659, 0.208424140628721 ] } },
{ "type": "Feature", "properties": { "AREA": 0.0, "PERIMETER": 0.0, "POBZ17_": 125, "POBZ17_ID": 125, "PUEBLOS_": 929, "PUEBLOS_ID": 1063, "NUM": 1063, "ID": 1063, "COD1": 3, "COD2": 1, "NOMBRE": "San Antonio de Pichincha", "COD": 3, "CPROVIN": null, "CCANT": "Santo Domingo", "CPARR": null, "CODIGO": "Cabecera Cantonal", "PROVINCIA": null, "POP_1990": 0, "POP_1995": 0, "POP_2002": 0, "ORDEN": 0 }, "geometry": { "type": "Point", "coordinates": [ -78.446856298552049, -0.005283709873904 ] } },
{ "type": "Feature", "properties": { "AREA": 0.0, "PERIMETER": 0.0, "POBZ17_": 126, "POBZ17_ID": 126, "PUEBLOS_": 937, "PUEBLOS_ID": 1071, "NUM": 1071, "ID": 1071, "COD1": 3, "COD2": 1, "NOMBRE": "Chavezpamba", "COD": 3, "CPROVIN": null, "CCANT": null, "CPARR": "Chavezpamba", "CODIGO": "Cabecera Parroquial", "PROVINCIA": null, "POP_1990": 0, "POP_1995": 0, "POP_2002": 0, "ORDEN": 0 }, "geometry": { "type": "Point", "coordinates": [ -78.406076702481812, 0.121869005387461 ] } },
{ "type": "Feature", "properties": { "AREA": 0.0, "PERIMETER": 0.0, "POBZ17_": 127, "POBZ17_ID": 127, "PUEBLOS_": 983, "PUEBLOS_ID": 1117, "NUM": 1117, "ID": 1117, "COD1": 3, "COD2": 1, "NOMBRE": "San Luis", "COD": 3, "CPROVIN": null, "CCANT": null, "CPARR": "San Luis", "CODIGO": "Cabecera Parroquial", "PROVINCIA": null, "POP_1990": 0, "POP_1995": 0, "POP_2002": 0, "ORDEN": 0 }, "geometry": { "type": "Point", "coordinates": [ -78.567302194963588, 0.235145375203879 ] } },
{ "type": "Feature", "properties": { "AREA": 0.0, "PERIMETER": 0.0, "POBZ17_": 128, "POBZ17_ID": 128, "PUEBLOS_": 987, "PUEBLOS_ID": 1121, "NUM": 1121, "ID": 1121, "COD1": 3, "COD2": 1, "NOMBRE": "Penaherrera", "COD": 3, "CPROVIN": null, "CCANT": null, "CPARR": "Penaherrera", "CODIGO": "Cabecera Parroquial", "PROVINCIA": null, "POP_1990": 0, "POP_1995": 0, "POP_2002": 0, "ORDEN": 0 }, "geometry": { "type": "Point", "coordinates": [ -78.536562358734102, 0.348216097852755 ] } },
{ "type": "Feature", "properties": { "AREA": 0.0, "PERIMETER": 0.0, "POBZ17_": 129, "POBZ17_ID": 129, "PUEBLOS_": 988, "PUEBLOS_ID": 1122, "NUM": 1122, "ID": 1122, "COD1": 3, "COD2": 1, "NOMBRE": "Apuela", "COD": 3, "CPROVIN": null, "CCANT": null, "CPARR": "Apuela", "CODIGO": "Cabecera Parroquial", "PROVINCIA": null, "POP_1990": 0, "POP_1995": 0, "POP_2002": 0, "ORDEN": 0 }, "geometry": { "type": "Point", "coordinates": [ -78.513239004832371, 0.355079146977474 ] } },
{ "type": "Feature", "properties": { "AREA": 0.0, "PERIMETER": 0.0, "POBZ17_": 130, "POBZ17_ID": 130, "PUEBLOS_": 989, "PUEBLOS_ID": 1123, "NUM": 1123, "ID": 1123, "COD1": 3, "COD2": 1, "NOMBRE": "Plaza Gutierrez", "COD": 3, "CPROVIN": null, "CCANT": null, "CPARR": "Plaza Gutierrez", "CODIGO": "Cabecera Parroquial", "PROVINCIA": null, "POP_1990": 0, "POP_1995": 0, "POP_2002": 0, "ORDEN": 0 }, "geometry": { "type": "Point", "coordinates": [ -78.491815459257737, 0.350282700341999 ] } },
{ "type": "Feature", "properties": { "AREA": 0.0, "PERIMETER": 0.0, "POBZ17_": 131, "POBZ17_ID": 131, "PUEBLOS_": 995, "PUEBLOS_ID": 1129, "NUM": 1129, "ID": 1129, "COD1": 3, "COD2": 1, "NOMBRE": "Seis De Julio De Cuellaje", "COD": 3, "CPROVIN": null, "CCANT": null, "CPARR": "Seis De Julio De Cuellaje", "CODIGO": "Cabecera Parroquial", "PROVINCIA": null, "POP_1990": 0, "POP_1995": 0, "POP_2002": 0, "ORDEN": 0 }, "geometry": { "type": "Point", "coordinates": [ -78.527070999990613, 0.397294279777658 ] } },
{ "type": "Feature", "properties": { "AREA": 0.0, "PERIMETER": 0.0, "POBZ17_": 132, "POBZ17_ID": 132, "PUEBLOS_": 1020, "PUEBLOS_ID": 1154, "NUM": 1154, "ID": 1154, "COD1": 3, "COD2": 1, "NOMBRE": "Pacto", "COD": 3, "CPROVIN": null, "CCANT": null, "CPARR": "Pacto", "CODIGO": "Cabecera Parroquial", "PROVINCIA": null, "POP_1990": 0, "POP_1995": 0, "POP_2002": 0, "ORDEN": 0 }, "geometry": { "type": "Point", "coordinates": [ -78.767271401677931, 0.142245579051852 ] } },
{ "type": "Feature", "properties": { "AREA": 0.0, "PERIMETER": 0.0, "POBZ17_": 133, "POBZ17_ID": 133, "PUEBLOS_": 1087, "PUEBLOS_ID": 1223, "NUM": 1223, "ID": 1223, "COD1": 3, "COD2": 1, "NOMBRE": "Urbina", "COD": 3, "CPROVIN": null, "CCANT": null, "CPARR": "Urbina", "CODIGO": "Cabecera Parroquial", "PROVINCIA": null, "POP_1990": 0, "POP_1995": 0, "POP_2002": 0, "ORDEN": 0 }, "geometry": { "type": "Point", "coordinates": [ -77.67454352304749, 0.804236296886554 ] } },
{ "type": "Feature", "properties": { "AREA": 0.0, "PERIMETER": 0.0, "POBZ17_": 134, "POBZ17_ID": 134, "PUEBLOS_": 1102, "PUEBLOS_ID": 1238, "NUM": 1238, "ID": 1238, "COD1": 3, "COD2": 1, "NOMBRE": "Pioter", "COD": 3, "CPROVIN": null, "CCANT": null, "CPARR": "Pioter", "CODIGO": "Cabecera Parroquial", "PROVINCIA": null, "POP_1990": 0, "POP_1995": 0, "POP_2002": 0, "ORDEN": 0 }, "geometry": { "type": "Point", "coordinates": [ -77.783508481465844, 0.644893933628152 ] } },
{ "type": "Feature", "properties": { "AREA": 0.0, "PERIMETER": 0.0, "POBZ17_": 135, "POBZ17_ID": 135, "PUEBLOS_": 1104, "PUEBLOS_ID": 1240, "NUM": 1240, "ID": 1240, "COD1": 3, "COD2": 1, "NOMBRE": "Sta Martha De Cuba", "COD": 3, "CPROVIN": null, "CCANT": null, "CPARR": "Sta Martha De Cuba", "CODIGO": "Cabecera Parroquial", "PROVINCIA": null, "POP_1990": 0, "POP_1995": 0, "POP_2002": 0, "ORDEN": 0 }, "geometry": { "type": "Point", "coordinates": [ -77.74913772749413, 0.637826169149304 ] } },
{ "type": "Feature", "properties": { "AREA": 0.0, "PERIMETER": 0.0, "POBZ17_": 136, "POBZ17_ID": 136, "PUEBLOS_": 1106, "PUEBLOS_ID": 1242, "NUM": 1242, "ID": 1242, "COD1": 3, "COD2": 1, "NOMBRE": "Chitan De Navarrete", "COD": 3, "CPROVIN": null, "CCANT": null, "CPARR": "Chitan De Navarrete", "CODIGO": "Cabecera Parroquial", "PROVINCIA": null, "POP_1990": 0, "POP_1995": 0, "POP_2002": 0, "ORDEN": 0 }, "geometry": { "type": "Point", "coordinates": [ -77.790230159130886, 0.623219040837236 ] } },
{ "type": "Feature", "properties": { "AREA": 0.0, "PERIMETER": 0.0, "POBZ17_": 137, "POBZ17_ID": 137, "PUEBLOS_": 1107, "PUEBLOS_ID": 1243, "NUM": 1243, "ID": 1243, "COD1": 3, "COD2": 1, "NOMBRE": "Cristobal Colon", "COD": 3, "CPROVIN": null, "CCANT": null, "CPARR": "Cristobal Colon", "CODIGO": "Cabecera Parroquial", "PROVINCIA": null, "POP_1990": 0, "POP_1995": 0, "POP_2002": 0, "ORDEN": 0 }, "geometry": { "type": "Point", "coordinates": [ -77.815399891108882, 0.605439218903441 ] } },
{ "type": "Feature", "properties": { "AREA": 0.0, "PERIMETER": 0.0, "POBZ17_": 138, "POBZ17_ID": 138, "PUEBLOS_": 1110, "PUEBLOS_ID": 1246, "NUM": 1246, "ID": 1246, "COD1": 3, "COD2": 1, "NOMBRE": "La Paz", "COD": 3, "CPROVIN": null, "CCANT": null, "CPARR": "La Paz", "CODIGO": "Cabecera Parroquial", "PROVINCIA": null, "POP_1990": 0, "POP_1995": 0, "POP_2002": 0, "ORDEN": 0 }, "geometry": { "type": "Point", "coordinates": [ -77.864221408526504, 0.508266222891713 ] } },
{ "type": "Feature", "properties": { "AREA": 0.0, "PERIMETER": 0.0, "POBZ17_": 139, "POBZ17_ID": 139, "PUEBLOS_": 1111, "PUEBLOS_ID": 1247, "NUM": 1247, "ID": 1247, "COD1": 3, "COD2": 1, "NOMBRE": "Los Andes", "COD": 3, "CPROVIN": null, "CCANT": null, "CPARR": "Los Andes", "CODIGO": "Cabecera Parroquial", "PROVINCIA": null, "POP_1990": 0, "POP_1995": 0, "POP_2002": 0, "ORDEN": 0 }, "geometry": { "type": "Point", "coordinates": [ -77.937311842350425, 0.499809959259668 ] } },
{ "type": "Feature", "properties": { "AREA": 0.0, "PERIMETER": 0.0, "POBZ17_": 140, "POBZ17_ID": 140, "PUEBLOS_": 1112, "PUEBLOS_ID": 1248, "NUM": 1248, "ID": 1248, "COD1": 3, "COD2": 1, "NOMBRE": "Garcia Moreno", "COD": 3, "CPROVIN": null, "CCANT": null, "CPARR": "Garcia Moreno", "CODIGO": "Cabecera Parroquial", "PROVINCIA": null, "POP_1990": 0, "POP_1995": 0, "POP_2002": 0, "ORDEN": 0 }, "geometry": { "type": "Point", "coordinates": [ -77.946505041045725, 0.561248008268318 ] } },
{ "type": "Feature", "properties": { "AREA": 0.0, "PERIMETER": 0.0, "POBZ17_": 141, "POBZ17_ID": 141, "PUEBLOS_": 1113, "PUEBLOS_ID": 1249, "NUM": 1249, "ID": 1249, "COD1": 3, "COD2": 1, "NOMBRE": "San Isidro", "COD": 3, "CPROVIN": null, "CCANT": null, "CPARR": "San Isidro", "CODIGO": "Cabecera Parroquial", "PROVINCIA": null, "POP_1990": 0, "POP_1995": 0, "POP_2002": 0, "ORDEN": 0 }, "geometry": { "type": "Point", "coordinates": [ -77.986178107586682, 0.60138314226941 ] } },
{ "type": "Feature", "properties": { "AREA": 0.0, "PERIMETER": 0.0, "POBZ17_": 142, "POBZ17_ID": 142, "PUEBLOS_": 1114, "PUEBLOS_ID": 1250, "NUM": 1250, "ID": 1250, "COD1": 3, "COD2": 1, "NOMBRE": "La Libertad", "COD": 3, "CPROVIN": null, "CCANT": null, "CPARR": "La Libertad", "CODIGO": "Cabecera Parroquial", "PROVINCIA": null, "POP_1990": 0, "POP_1995": 0, "POP_2002": 68500, "ORDEN": 17 }, "geometry": { "type": "Point", "coordinates": [ -77.941141049097695, 0.65140757656045 ] } },
{ "type": "Feature", "properties": { "AREA": 0.0, "PERIMETER": 0.0, "POBZ17_": 143, "POBZ17_ID": 143, "PUEBLOS_": 1115, "PUEBLOS_ID": 1251, "NUM": 1251, "ID": 1251, "COD1": 3, "COD2": 1, "NOMBRE": "El Chocal", "COD": 3, "CPROVIN": null, "CCANT": null, "CPARR": "El Chocal", "CODIGO": "Cabecera Parroquial", "PROVINCIA": null, "POP_1990": 0, "POP_1995": 0, "POP_2002": 0, "ORDEN": 0 }, "geometry": { "type": "Point", "coordinates": [ -77.930787741147157, 0.672450917983774 ] } },
{ "type": "Feature", "properties": { "AREA": 0.0, "PERIMETER": 0.0, "POBZ17_": 144, "POBZ17_ID": 144, "PUEBLOS_": 1116, "PUEBLOS_ID": 1252, "NUM": 1252, "ID": 1252, "COD1": 3, "COD2": 1, "NOMBRE": "Jesus Del Gran Poder", "COD": 3, "CPROVIN": null, "CCANT": null, "CPARR": "Jesus Del Gran Poder", "CODIGO": "Cabecera Parroquial", "PROVINCIA": null, "POP_1990": 0, "POP_1995": 0, "POP_2002": 0, "ORDEN": 0 }, "geometry": { "type": "Point", "coordinates": [ -77.953706670216633, 0.675446935883176 ] } },
{ "type": "Feature", "properties": { "AREA": 0.0, "PERIMETER": 0.0, "POBZ17_": 145, "POBZ17_ID": 145, "PUEBLOS_": 1117, "PUEBLOS_ID": 1253, "NUM": 1253, "ID": 1253, "COD1": 3, "COD2": 1, "NOMBRE": "Tufino", "COD": 3, "CPROVIN": null, "CCANT": null, "CPARR": "Tufino", "CODIGO": "Cabecera Parroquial", "PROVINCIA": null, "POP_1990": 0, "POP_1995": 0, "POP_2002": 0, "ORDEN": 0 }, "geometry": { "type": "Point", "coordinates": [ -77.852440015077434, 0.79805652820799 ] } },
{ "type": "Feature", "properties": { "AREA": 0.0, "PERIMETER": 0.0, "POBZ17_": 146, "POBZ17_ID": 146, "PUEBLOS_": 1135, "PUEBLOS_ID": 1271, "NUM": 1271, "ID": 1271, "COD1": 3, "COD2": 1, "NOMBRE": "Santa Barbara", "COD": 3, "CPROVIN": null, "CCANT": null, "CPARR": "Santa Barbara", "CODIGO": "Cabecera Parroquial", "PROVINCIA": null, "POP_1990": 0, "POP_1995": 0, "POP_2002": 0, "ORDEN": 0 }, "geometry": { "type": "Point", "coordinates": [ -77.524907377193884, 0.64751979747037 ] } },
{ "type": "Feature", "properties": { "AREA": 0.0, "PERIMETER": 0.0, "POBZ17_": 147, "POBZ17_ID": 147, "PUEBLOS_": 1151, "PUEBLOS_ID": 1287, "NUM": 1287, "ID": 1287, "COD1": 3, "COD2": 1, "NOMBRE": "Mariano Acosta", "COD": 3, "CPROVIN": null, "CCANT": null, "CPARR": "Mariano Acosta", "CODIGO": "Cabecera Parroquial", "PROVINCIA": null, "POP_1990": 0, "POP_1995": 0, "POP_2002": 0, "ORDEN": 0 }, "geometry": { "type": "Point", "coordinates": [ -77.981014562261208, 0.296099268460673 ] } },
{ "type": "Feature", "properties": { "AREA": 0.0, "PERIMETER": 0.0, "POBZ17_": 148, "POBZ17_ID": 148, "PUEBLOS_": 1152, "PUEBLOS_ID": 1288, "NUM": 1288, "ID": 1288, "COD1": 3, "COD2": 1, "NOMBRE": "San Francisco De Sigsipamba", "COD": 3, "CPROVIN": null, "CCANT": null, "CPARR": "San Francisco De Sigsipamba", "CODIGO": "Cabecera Parroquial", "PROVINCIA": null, "POP_1990": 0, "POP_1995": 0, "POP_2002": 0, "ORDEN": 0 }, "geometry": { "type": "Point", "coordinates": [ -77.911082762280188, 0.2957178975992 ] } },
{ "type": "Feature", "properties": { "AREA": 0.0, "PERIMETER": 0.0, "POBZ17_": 149, "POBZ17_ID": 149, "PUEBLOS_": 1154, "PUEBLOS_ID": 1290, "NUM": 1290, "ID": 1290, "COD1": 3, "COD2": 1, "NOMBRE": "Chuga", "COD": 3, "CPROVIN": null, "CCANT": null, "CPARR": "Chuga", "CODIGO": "Cabecera Parroquial", "PROVINCIA": null, "POP_1990": 0, "POP_1995": 0, "POP_2002": 0, "ORDEN": 0 }, "geometry": { "type": "Point", "coordinates": [ -77.900011965454254, 0.377110745828878 ] } },
{ "type": "Feature", "properties": { "AREA": 0.0, "PERIMETER": 0.0, "POBZ17_": 150, "POBZ17_ID": 150, "PUEBLOS_": 1155, "PUEBLOS_ID": 1291, "NUM": 1291, "ID": 1291, "COD1": 3, "COD2": 1, "NOMBRE": "Monte Olivo", "COD": 3, "CPROVIN": null, "CCANT": null, "CPARR": "Monte Olivo", "CODIGO": "Cabecera Parroquial", "PROVINCIA": null, "POP_1990": 0, "POP_1995": 0, "POP_2002": 0, "ORDEN": 0 }, "geometry": { "type": "Point", "coordinates": [ -77.857592002147555, 0.389742092269681 ] } },
{ "type": "Feature", "properties": { "AREA": 0.0, "PERIMETER": 0.0, "POBZ17_": 151, "POBZ17_ID": 151, "PUEBLOS_": 1159, "PUEBLOS_ID": 1295, "NUM": 1295, "ID": 1295, "COD1": 3, "COD2": 1, "NOMBRE": "La Sofia", "COD": 3, "CPROVIN": null, "CCANT": null, "CPARR": "La Sofia", "CODIGO": "Cabecera Parroquial", "PROVINCIA": null, "POP_1990": 0, "POP_1995": 0, "POP_2002": 0, "ORDEN": 0 }, "geometry": { "type": "Point", "coordinates": [ -77.638954202010723, 0.358315378708136 ] } },
{ "type": "Feature", "properties": { "AREA": 0.0, "PERIMETER": 0.0, "POBZ17_": 152, "POBZ17_ID": 152, "PUEBLOS_": 1160, "PUEBLOS_ID": 1296, "NUM": 1296, "ID": 1296, "COD1": 3, "COD2": 1, "NOMBRE": "Rosa Florida", "COD": 3, "CPROVIN": null, "CCANT": null, "CPARR": "Rosa Florida", "CODIGO": "Cabecera Parroquial", "PROVINCIA": null, "POP_1990": 0, "POP_1995": 0, "POP_2002": 0, "ORDEN": 0 }, "geometry": { "type": "Point", "coordinates": [ -77.532072602936694, 0.407220254504247 ] } },
{ "type": "Feature", "properties": { "AREA": 0.0, "PERIMETER": 0.0, "POBZ17_": 153, "POBZ17_ID": 153, "PUEBLOS_": 1161, "PUEBLOS_ID": 1297, "NUM": 1297, "ID": 1297, "COD1": 3, "COD2": 1, "NOMBRE": "Puerto Libre", "COD": 3, "CPROVIN": null, "CCANT": null, "CPARR": "Puerto Libre", "CODIGO": "Cabecera Parroquial", "PROVINCIA": null, "POP_1990": 0, "POP_1995": 0, "POP_2002": 0, "ORDEN": 0 }, "geometry": { "type": "Point", "coordinates": [ -77.487021557973108, 0.191920725458219 ] } },
{ "type": "Feature", "properties": { "AREA": 0.0, "PERIMETER": 0.0, "POBZ17_": 154, "POBZ17_ID": 154, "PUEBLOS_": 1162, "PUEBLOS_ID": 1298, "NUM": 1298, "ID": 1298, "COD1": 3, "COD2": 1, "NOMBRE": "Santa Rosa", "COD": 3, "CPROVIN": null, "CCANT": null, "CPARR": "Santa Rosa", "CODIGO": "Cabecera Parroquial", "PROVINCIA": null, "POP_1990": 34900, "POP_1995": 39300, "POP_2002": 46000, "ORDEN": 23 }, "geometry": { "type": "Point", "coordinates": [ -77.129664437545671, 0.16900283200138 ] } },
{ "type": "Feature", "properties": { "AREA": 0.0, "PERIMETER": 0.0, "POBZ17_": 155, "POBZ17_ID": 155, "PUEBLOS_": 1163, "PUEBLOS_ID": 1299, "NUM": 1299, "ID": 1299, "COD1": 3, "COD2": 1, "NOMBRE": "Sevilla", "COD": 3, "CPROVIN": null, "CCANT": null, "CPARR": "Sevilla", "CODIGO": "Cabecera Parroquial", "PROVINCIA": null, "POP_1990": 0, "POP_1995": 0, "POP_2002": 0, "ORDEN": 0 }, "geometry": { "type": "Point", "coordinates": [ -77.126551978897794, 0.084785059968151 ] } },
{ "type": "Feature", "properties": { "AREA": 0.0, "PERIMETER": 0.0, "POBZ17_": 156, "POBZ17_ID": 156, "PUEBLOS_": 1164, "PUEBLOS_ID": 1300, "NUM": 1300, "ID": 1300, "COD1": 3, "COD2": 1, "NOMBRE": "Gonzalo Pizarro", "COD": 3, "CPROVIN": null, "CCANT": "Gonzalo Pizarro", "CPARR": "Gonzalo Pizarro", "CODIGO": "Cabecera Cantonal", "PROVINCIA": null, "POP_1990": 0, "POP_1995": 0, "POP_2002": 0, "ORDEN": 0 }, "geometry": { "type": "Point", "coordinates": [ -77.377035791404552, 0.016461403245227 ] } },
{ "type": "Feature", "properties": { "AREA": 0.0, "PERIMETER": 0.0, "POBZ17_": 157, "POBZ17_ID": 157, "PUEBLOS_": 1167, "PUEBLOS_ID": 1303, "NUM": 1303, "ID": 1303, "COD1": 3, "COD2": 1, "NOMBRE": "San Mateo", "COD": 3, "CPROVIN": null, "CCANT": null, "CPARR": "San Mateo", "CODIGO": "Cabecera Parroquial", "PROVINCIA": "MANABÍ", "POP_1990": 0, "POP_1995": 0, "POP_2002": 0, "ORDEN": 0 }, "geometry": { "type": "Point", "coordinates": [ -80.810561844446255, -0.959503195994123 ] } },
{ "type": "Feature", "properties": { "AREA": 0.0, "PERIMETER": 0.0, "POBZ17_": 158, "POBZ17_ID": 158, "PUEBLOS_": 1169, "PUEBLOS_ID": 1305, "NUM": 1305, "ID": 1305, "COD1": 3, "COD2": 1, "NOMBRE": "Santa Marianita", "COD": 3, "CPROVIN": null, "CCANT": null, "CPARR": "Santa Marianita", "CODIGO": "Cabecera Parroquial", "PROVINCIA": "MANABÍ", "POP_1990": 0, "POP_1995": 0, "POP_2002": 0, "ORDEN": 0 }, "geometry": { "type": "Point", "coordinates": [ -80.756339296224226, -0.985302781591935 ] } },
{ "type": "Feature", "properties": { "AREA": 0.0, "PERIMETER": 0.0, "POBZ17_": 159, "POBZ17_ID": 159, "PUEBLOS_": 1171, "PUEBLOS_ID": 1307, "NUM": 1307, "ID": 1307, "COD1": 3, "COD2": 1, "NOMBRE": "Jaramijo", "COD": 3, "CPROVIN": null, "CCANT": "Jaramijo", "CPARR": "Jaramijo", "CODIGO": "Cabecera Cantonal", "PROVINCIA": "MANABÍ", "POP_1990": 0, "POP_1995": 0, "POP_2002": 0, "ORDEN": 0 }, "geometry": { "type": "Point", "coordinates": [ -80.636884105333863, -0.947892092626168 ] } },
{ "type": "Feature", "properties": { "AREA": 0.0, "PERIMETER": 0.0, "POBZ17_": 160, "POBZ17_ID": 160, "PUEBLOS_": 1179, "PUEBLOS_ID": 1315, "NUM": 1315, "ID": 1315, "COD1": 3, "COD2": 1, "NOMBRE": "Crucita", "COD": 3, "CPROVIN": null, "CCANT": null, "CPARR": "Crucita", "CODIGO": "Cabecera Parroquial", "PROVINCIA": "MANABÍ", "POP_1990": 0, "POP_1995": 0, "POP_2002": 0, "ORDEN": 0 }, "geometry": { "type": "Point", "coordinates": [ -80.539142159387225, -0.87572234812708 ] } },
{ "type": "Feature", "properties": { "AREA": 0.0, "PERIMETER": 0.0, "POBZ17_": 161, "POBZ17_ID": 161, "PUEBLOS_": 1186, "PUEBLOS_ID": 1322, "NUM": 1322, "ID": 1322, "COD1": 3, "COD2": 1, "NOMBRE": "Charapoto", "COD": 3, "CPROVIN": null, "CCANT": null, "CPARR": "Charapoto", "CODIGO": "Cabecera Parroquial", "PROVINCIA": "MANABÍ", "POP_1990": 0, "POP_1995": 0, "POP_2002": 0, "ORDEN": 0 }, "geometry": { "type": "Point", "coordinates": [ -80.484072227397334, -0.838776945935642 ] } },
{ "type": "Feature", "properties": { "AREA": 0.0, "PERIMETER": 0.0, "POBZ17_": 162, "POBZ17_ID": 162, "PUEBLOS_": 1191, "PUEBLOS_ID": 1327, "NUM": 1327, "ID": 1327, "COD1": 3, "COD2": 1, "NOMBRE": "Rio Chico", "COD": 3, "CPROVIN": null, "CCANT": null, "CPARR": "Rio Chico", "CODIGO": "Cabecera Parroquial", "PROVINCIA": "MANABÍ", "POP_1990": 0, "POP_1995": 0, "POP_2002": 0, "ORDEN": 0 }, "geometry": { "type": "Point", "coordinates": [ -80.416270232086987, -0.994635523873097 ] } },
{ "type": "Feature", "properties": { "AREA": 0.0, "PERIMETER": 0.0, "POBZ17_": 163, "POBZ17_ID": 163, "PUEBLOS_": 1202, "PUEBLOS_ID": 1338, "NUM": 1338, "ID": 1338, "COD1": 3, "COD2": 1, "NOMBRE": "San Vicente", "COD": 3, "CPROVIN": null, "CCANT": null, "CPARR": "San Vicente", "CODIGO": "Cabecera Parroquial", "PROVINCIA": "MANABÍ", "POP_1990": 0, "POP_1995": 0, "POP_2002": 0, "ORDEN": 0 }, "geometry": { "type": "Point", "coordinates": [ -80.403526978964976, -0.584773794072101 ] } },
{ "type": "Feature", "properties": { "AREA": 0.0, "PERIMETER": 0.0, "POBZ17_": 164, "POBZ17_ID": 164, "PUEBLOS_": 1205, "PUEBLOS_ID": 1341, "NUM": 1341, "ID": 1341, "COD1": 3, "COD2": 1, "NOMBRE": "Canoa", "COD": 3, "CPROVIN": null, "CCANT": null, "CPARR": "Canoa", "CODIGO": "Cabecera Parroquial", "PROVINCIA": "MANABÍ", "POP_1990": 0, "POP_1995": 0, "POP_2002": 0, "ORDEN": 0 }, "geometry": { "type": "Point", "coordinates": [ -80.448526418759059, -0.455446691498204 ] } },
{ "type": "Feature", "properties": { "AREA": 0.0, "PERIMETER": 0.0, "POBZ17_": 165, "POBZ17_ID": 165, "PUEBLOS_": 1234, "PUEBLOS_ID": 1370, "NUM": 1370, "ID": 1370, "COD1": 3, "COD2": 1, "NOMBRE": "Jama", "COD": 3, "CPROVIN": null, "CCANT": "Jama", "CPARR": "Jama", "CODIGO": "Cabecera Cantonal", "PROVINCIA": "MANABÍ", "POP_1990": 0, "POP_1995": 0, "POP_2002": 0, "ORDEN": 0 }, "geometry": { "type": "Point", "coordinates": [ -80.264528765473131, -0.200255787392539 ] } },
{ "type": "Feature", "properties": { "AREA": 0.0, "PERIMETER": 0.0, "POBZ17_": 166, "POBZ17_ID": 166, "PUEBLOS_": 1257, "PUEBLOS_ID": 1393, "NUM": 1393, "ID": 1393, "COD1": 3, "COD2": 1, "NOMBRE": "Bachillero", "COD": 3, "CPROVIN": null, "CCANT": null, "CPARR": "Bachillero", "CODIGO": "Cabecera Parroquial", "PROVINCIA": "MANABÍ", "POP_1990": 0, "POP_1995": 0, "POP_2002": 0, "ORDEN": 0 }, "geometry": { "type": "Point", "coordinates": [ -80.21410990961823, -0.764933120118599 ] } },
{ "type": "Feature", "properties": { "AREA": 0.0, "PERIMETER": 0.0, "POBZ17_": 167, "POBZ17_ID": 167, "PUEBLOS_": 1259, "PUEBLOS_ID": 1395, "NUM": 1395, "ID": 1395, "COD1": 3, "COD2": 1, "NOMBRE": "Tosagua", "COD": 3, "CPROVIN": null, "CCANT": "Tosagua", "CPARR": null, "CODIGO": "Cabecera Cantonal", "PROVINCIA": "MANABÍ", "POP_1990": 0, "POP_1995": 0, "POP_2002": 0, "ORDEN": 0 }, "geometry": { "type": "Point", "coordinates": [ -80.233626305503023, -0.786874246023431 ] } },
{ "type": "Feature", "properties": { "AREA": 0.0, "PERIMETER": 0.0, "POBZ17_": 168, "POBZ17_ID": 168, "PUEBLOS_": 1294, "PUEBLOS_ID": 1430, "NUM": 1430, "ID": 1430, "COD1": 3, "COD2": 1, "NOMBRE": "Canuto", "COD": 3, "CPROVIN": null, "CCANT": null, "CPARR": "Canuto", "CODIGO": "Cabecera Parroquial", "PROVINCIA": "MANABÍ", "POP_1990": 0, "POP_1995": 0, "POP_2002": 0, "ORDEN": 0 }, "geometry": { "type": "Point", "coordinates": [ -80.127980906418372, -0.79894901745051 ] } },
{ "type": "Feature", "properties": { "AREA": 0.0, "PERIMETER": 0.0, "POBZ17_": 169, "POBZ17_ID": 169, "PUEBLOS_": 1302, "PUEBLOS_ID": 1438, "NUM": 1438, "ID": 1438, "COD1": 3, "COD2": 1, "NOMBRE": "San Antonio", "COD": 3, "CPROVIN": null, "CCANT": null, "CPARR": "San Antonio", "CODIGO": "Cabecera Parroquial", "PROVINCIA": "MANABÍ", "POP_1990": 0, "POP_1995": 0, "POP_2002": 0, "ORDEN": 0 }, "geometry": { "type": "Point", "coordinates": [ -80.166310722566607, -0.705625757621767 ] } },
{ "type": "Feature", "properties": { "AREA": 0.0, "PERIMETER": 0.0, "POBZ17_": 170, "POBZ17_ID": 170, "PUEBLOS_": 1308, "PUEBLOS_ID": 1444, "NUM": 1444, "ID": 1444, "COD1": 3, "COD2": 1, "NOMBRE": "Boyaca", "COD": 3, "CPROVIN": null, "CCANT": null, "CPARR": "Boyaca", "CODIGO": "Cabecera Parroquial", "PROVINCIA": "MANABÍ", "POP_1990": 0, "POP_1995": 0, "POP_2002": 0, "ORDEN": 0 }, "geometry": { "type": "Point", "coordinates": [ -80.176937541287373, -0.569371266106912 ] } },
{ "type": "Feature", "properties": { "AREA": 0.0, "PERIMETER": 0.0, "POBZ17_": 171, "POBZ17_ID": 171, "PUEBLOS_": 1323, "PUEBLOS_ID": 1459, "NUM": 1459, "ID": 1459, "COD1": 3, "COD2": 1, "NOMBRE": "San Isidro", "COD": 3, "CPROVIN": null, "CCANT": null, "CPARR": "San Isidro", "CODIGO": "Cabecera Parroquial", "PROVINCIA": "MANABÍ", "POP_1990": 0, "POP_1995": 0, "POP_2002": 0, "ORDEN": 0 }, "geometry": { "type": "Point", "coordinates": [ -80.186060931072944, -0.37890084204193 ] } },
{ "type": "Feature", "properties": { "AREA": 0.0, "PERIMETER": 0.0, "POBZ17_": 172, "POBZ17_ID": 172, "PUEBLOS_": 1342, "PUEBLOS_ID": 1478, "NUM": 1478, "ID": 1478, "COD1": 3, "COD2": 1, "NOMBRE": "Diez De Agosto", "COD": 3, "CPROVIN": null, "CCANT": null, "CPARR": "Diez De Agosto", "CODIGO": "Cabecera Parroquial", "PROVINCIA": "MANABÍ", "POP_1990": 0, "POP_1995": 0, "POP_2002": 0, "ORDEN": 0 }, "geometry": { "type": "Point", "coordinates": [ -80.07164742264078, -0.143772684298251 ] } },
{ "type": "Feature", "properties": { "AREA": 0.0, "PERIMETER": 0.0, "POBZ17_": 173, "POBZ17_ID": 173, "PUEBLOS_": 1347, "PUEBLOS_ID": 1483, "NUM": 1483, "ID": 1483, "COD1": 3, "COD2": 1, "NOMBRE": "Convento", "COD": 3, "CPROVIN": null, "CCANT": null, "CPARR": "Convento", "CODIGO": "Cabecera Parroquial", "PROVINCIA": "MANABÍ", "POP_1990": 0, "POP_1995": 0, "POP_2002": 0, "ORDEN": 0 }, "geometry": { "type": "Point", "coordinates": [ -80.035484691995208, -0.277254540978101 ] } },
{ "type": "Feature", "properties": { "AREA": 0.0, "PERIMETER": 0.0, "POBZ17_": 174, "POBZ17_ID": 174, "PUEBLOS_": 1355, "PUEBLOS_ID": 1491, "NUM": 1491, "ID": 1491, "COD1": 3, "COD2": 1, "NOMBRE": "Eloy Alfaro", "COD": 3, "CPROVIN": null, "CCANT": null, "CPARR": "Eloy Alfaro", "CODIGO": "Cabecera Parroquial", "PROVINCIA": "MANABÍ", "POP_1990": 0, "POP_1995": 0, "POP_2002": 0, "ORDEN": 0 }, "geometry": { "type": "Point", "coordinates": [ -80.079332264371786, -0.400755457289121 ] } },
{ "type": "Feature", "properties": { "AREA": 0.0, "PERIMETER": 0.0, "POBZ17_": 175, "POBZ17_ID": 175, "PUEBLOS_": 1365, "PUEBLOS_ID": 1501, "NUM": 1501, "ID": 1501, "COD1": 3, "COD2": 1, "NOMBRE": "Ricaurte", "COD": 3, "CPROVIN": null, "CCANT": null, "CPARR": "Ricaurte", "CODIGO": "Cabecera Parroquial", "PROVINCIA": "MANABÍ", "POP_1990": 0, "POP_1995": 0, "POP_2002": 0, "ORDEN": 0 }, "geometry": { "type": "Point", "coordinates": [ -80.040499574755543, -0.582558358825387 ] } },
{ "type": "Feature", "properties": { "AREA": 0.0, "PERIMETER": 0.0, "POBZ17_": 176, "POBZ17_ID": 176, "PUEBLOS_": 1392, "PUEBLOS_ID": 1528, "NUM": 1528, "ID": 1528, "COD1": 3, "COD2": 1, "NOMBRE": "Quiroga", "COD": 3, "CPROVIN": null, "CCANT": null, "CPARR": "Quiroga", "CODIGO": "Cabecera Parroquial", "PROVINCIA": "MANABÍ", "POP_1990": 0, "POP_1995": 0, "POP_2002": 0, "ORDEN": 0 }, "geometry": { "type": "Point", "coordinates": [ -80.096906686873268, -0.887269265296296 ] } },
{ "type": "Feature", "properties": { "AREA": 0.0, "PERIMETER": 0.0, "POBZ17_": 177, "POBZ17_ID": 177, "PUEBLOS_": 1469, "PUEBLOS_ID": 1605, "NUM": 1605, "ID": 1605, "COD1": 3, "COD2": 1, "NOMBRE": "Sumaco", "COD": 3, "CPROVIN": null, "CCANT": null, "CPARR": "Sumaco", "CODIGO": "Cabecera Parroquial", "PROVINCIA": null, "POP_1990": 0, "POP_1995": 0, "POP_2002": 0, "ORDEN": 0 }, "geometry": { "type": "Point", "coordinates": [ -77.57155945264806, -0.47260696357624 ] } },
{ "type": "Feature", "properties": { "AREA": 0.0, "PERIMETER": 0.0, "POBZ17_": 178, "POBZ17_ID": 178, "PUEBLOS_": 1470, "PUEBLOS_ID": 1606, "NUM": 1606, "ID": 1606, "COD1": 3, "COD2": 1, "NOMBRE": "El Reventador", "COD": 3, "CPROVIN": null, "CCANT": null, "CPARR": "El Reventador", "CODIGO": "Cabecera Parroquial", "PROVINCIA": null, "POP_1990": 0, "POP_1995": 0, "POP_2002": 0, "ORDEN": 0 }, "geometry": { "type": "Point", "coordinates": [ -77.528412620030764, -0.042811342025777 ] } },
{ "type": "Feature", "properties": { "AREA": 0.0, "PERIMETER": 0.0, "POBZ17_": 179, "POBZ17_ID": 179, "PUEBLOS_": 1474, "PUEBLOS_ID": 1610, "NUM": 1610, "ID": 1610, "COD1": 3, "COD2": 1, "NOMBRE": "San Francisco De Borja", "COD": 3, "CPROVIN": null, "CCANT": null, "CPARR": "San Francisco De Borja", "CODIGO": "Cabecera Parroquial", "PROVINCIA": null, "POP_1990": 0, "POP_1995": 0, "POP_2002": 0, "ORDEN": 0 }, "geometry": { "type": "Point", "coordinates": [ -77.841040246859023, -0.423943850351306 ] } },
{ "type": "Feature", "properties": { "AREA": 0.0, "PERIMETER": 0.0, "POBZ17_": 180, "POBZ17_ID": 180, "PUEBLOS_": 1475, "PUEBLOS_ID": 1611, "NUM": 1611, "ID": 1611, "COD1": 3, "COD2": 1, "NOMBRE": "Cosanga", "COD": 3, "CPROVIN": null, "CCANT": null, "CPARR": "Cosanga", "CODIGO": "Cabecera Parroquial", "PROVINCIA": null, "POP_1990": 0, "POP_1995": 0, "POP_2002": 0, "ORDEN": 0 }, "geometry": { "type": "Point", "coordinates": [ -77.869567726371542, -0.582758762643442 ] } },
{ "type": "Feature", "properties": { "AREA": 0.0, "PERIMETER": 0.0, "POBZ17_": 181, "POBZ17_ID": 181, "PUEBLOS_": 1478, "PUEBLOS_ID": 1614, "NUM": 1614, "ID": 1614, "COD1": 3, "COD2": 1, "NOMBRE": "San Jose De Payamino", "COD": 3, "CPROVIN": null, "CCANT": null, "CPARR": "San Jose De Payamino", "CODIGO": "Cabecera Parroquial", "PROVINCIA": null, "POP_1990": 0, "POP_1995": 0, "POP_2002": 0, "ORDEN": 0 }, "geometry": { "type": "Point", "coordinates": [ -77.312233400322413, -0.506792216384499 ] } },
{ "type": "Feature", "properties": { "AREA": 0.0, "PERIMETER": 0.0, "POBZ17_": 182, "POBZ17_ID": 182, "PUEBLOS_": 1480, "PUEBLOS_ID": 1616, "NUM": 1616, "ID": 1616, "COD1": 3, "COD2": 1, "NOMBRE": "Avila", "COD": 3, "CPROVIN": null, "CCANT": null, "CPARR": "Avila", "CODIGO": "Cabecera Parroquial", "PROVINCIA": null, "POP_1990": 0, "POP_1995": 0, "POP_2002": 0, "ORDEN": 0 }, "geometry": { "type": "Point", "coordinates": [ -77.370241422923115, -0.726293129578078 ] } },
{ "type": "Feature", "properties": { "AREA": 0.0, "PERIMETER": 0.0, "POBZ17_": 183, "POBZ17_ID": 183, "PUEBLOS_": 1481, "PUEBLOS_ID": 1617, "NUM": 1617, "ID": 1617, "COD1": 3, "COD2": 1, "NOMBRE": "Chontapunta", "COD": 3, "CPROVIN": null, "CCANT": null, "CPARR": "Chontapunta", "CODIGO": "Cabecera Parroquial", "PROVINCIA": null, "POP_1990": 0, "POP_1995": 0, "POP_2002": 0, "ORDEN": 0 }, "geometry": { "type": "Point", "coordinates": [ -77.36248312259049, -0.912842767060261 ] } },
{ "type": "Feature", "properties": { "AREA": 0.0, "PERIMETER": 0.0, "POBZ17_": 184, "POBZ17_ID": 184, "PUEBLOS_": 1483, "PUEBLOS_ID": 1619, "NUM": 1619, "ID": 1619, "COD1": 3, "COD2": 1, "NOMBRE": "Atahualpa", "COD": 3, "CPROVIN": null, "CCANT": null, "CPARR": "Atahualpa", "CODIGO": "Cabecera Parroquial", "PROVINCIA": "MANABÍ", "POP_1990": 0, "POP_1995": 0, "POP_2002": 0, "ORDEN": 0 }, "geometry": { "type": "Point", "coordinates": [ -79.968953740136584, -0.027267821655951 ] } },
{ "type": "Feature", "properties": { "AREA": 0.0, "PERIMETER": 0.0, "POBZ17_": 185, "POBZ17_ID": 185, "PUEBLOS_": 1508, "PUEBLOS_ID": 1644, "NUM": 1644, "ID": 1644, "COD1": 3, "COD2": 1, "NOMBRE": "Membrillo", "COD": 3, "CPROVIN": null, "CCANT": null, "CPARR": "Membrillo", "CODIGO": "Cabecera Parroquial", "PROVINCIA": "MANABÍ", "POP_1990": 0, "POP_1995": 0, "POP_2002": 0, "ORDEN": 0 }, "geometry": { "type": "Point", "coordinates": [ -79.927547031790496, -0.846474256466422 ] } },
{ "type": "Feature", "properties": { "AREA": 0.0, "PERIMETER": 0.0, "POBZ17_": 186, "POBZ17_ID": 186, "PUEBLOS_": 1584, "PUEBLOS_ID": 1720, "NUM": 1720, "ID": 1720, "COD1": 3, "COD2": 1, "NOMBRE": "San Francisco", "COD": 3, "CPROVIN": null, "CCANT": null, "CPARR": "San Francisco", "CODIGO": "Cabecera Parroquial", "PROVINCIA": "MANABÍ", "POP_1990": 0, "POP_1995": 0, "POP_2002": 0, "ORDEN": 0 }, "geometry": { "type": "Point", "coordinates": [ -79.741817752441165, -0.201548817920993 ] } },
{ "type": "Feature", "properties": { "AREA": 0.0, "PERIMETER": 0.0, "POBZ17_": 187, "POBZ17_ID": 187, "PUEBLOS_": 1657, "PUEBLOS_ID": 1793, "NUM": 1793, "ID": 1793, "COD1": 3, "COD2": 1, "NOMBRE": "Guayas", "COD": 3, "CPROVIN": null, "CCANT": null, "CPARR": "Guayas", "CODIGO": "Cabecera Parroquial", "PROVINCIA": null, "POP_1990": 0, "POP_1995": 0, "POP_2002": 0, "ORDEN": 0 }, "geometry": { "type": "Point", "coordinates": [ -79.570312548137494, -0.983068003322612 ] } },
{ "type": "Feature", "properties": { "AREA": 0.0, "PERIMETER": 0.0, "POBZ17_": 188, "POBZ17_ID": 188, "PUEBLOS_": 1725, "PUEBLOS_ID": 1861, "NUM": 1861, "ID": 1861, "COD1": 3, "COD2": 1, "NOMBRE": "San Jacinto De Bua", "COD": 3, "CPROVIN": null, "CCANT": null, "CPARR": "San Jacinto De Bua", "CODIGO": "Cabecera Parroquial", "PROVINCIA": null, "POP_1990": 0, "POP_1995": 0, "POP_2002": 0, "ORDEN": 0 }, "geometry": { "type": "Point", "coordinates": [ -79.395362614772012, -0.146291004721502 ] } },
{ "type": "Feature", "properties": { "AREA": 0.0, "PERIMETER": 0.0, "POBZ17_": 189, "POBZ17_ID": 189, "PUEBLOS_": 1763, "PUEBLOS_ID": 1899, "NUM": 1899, "ID": 1899, "COD1": 3, "COD2": 1, "NOMBRE": "La Esperanza", "COD": 3, "CPROVIN": null, "CCANT": null, "CPARR": "La Esperanza", "CODIGO": "Cabecera Parroquial", "PROVINCIA": null, "POP_1990": 0, "POP_1995": 0, "POP_2002": 0, "ORDEN": 0 }, "geometry": { "type": "Point", "coordinates": [ -79.421804452619995, -0.96696711605512 ] } },
{ "type": "Feature", "properties": { "AREA": 0.0, "PERIMETER": 0.0, "POBZ17_": 190, "POBZ17_ID": 190, "PUEBLOS_": 1784, "PUEBLOS_ID": 1920, "NUM": 1920, "ID": 1920, "COD1": 3, "COD2": 1, "NOMBRE": "Patricia Pilar", "COD": 3, "CPROVIN": null, "CCANT": null, "CPARR": "Patricia Pilar", "CODIGO": "Cabecera Parroquial", "PROVINCIA": null, "POP_1990": 0, "POP_1995": 0, "POP_2002": 0, "ORDEN": 0 }, "geometry": { "type": "Point", "coordinates": [ -79.368891236079236, -0.572541872914251 ] } },
{ "type": "Feature", "properties": { "AREA": 0.0, "PERIMETER": 0.0, "POBZ17_": 191, "POBZ17_ID": 191, "PUEBLOS_": 1789, "PUEBLOS_ID": 1925, "NUM": 1925, "ID": 1925, "COD1": 3, "COD2": 1, "NOMBRE": "Luz De America", "COD": 3, "CPROVIN": null, "CCANT": null, "CPARR": "Luz De America", "CODIGO": "Cabecera Parroquial", "PROVINCIA": null, "POP_1990": 0, "POP_1995": 0, "POP_2002": 0, "ORDEN": 0 }, "geometry": { "type": "Point", "coordinates": [ -79.302231292595721, -0.40545699066306 ] } },
{ "type": "Feature", "properties": { "AREA": 0.0, "PERIMETER": 0.0, "POBZ17_": 192, "POBZ17_ID": 192, "PUEBLOS_": 1790, "PUEBLOS_ID": 1926, "NUM": 1926, "ID": 1926, "COD1": 3, "COD2": 1, "NOMBRE": "Puerto Limon", "COD": 3, "CPROVIN": null, "CCANT": null, "CPARR": "Puerto Limon", "CODIGO": "Cabecera Parroquial", "PROVINCIA": null, "POP_1990": 0, "POP_1995": 0, "POP_2002": 0, "ORDEN": 0 }, "geometry": { "type": "Point", "coordinates": [ -79.371255100756372, -0.386777545042036 ] } },
{ "type": "Feature", "properties": { "AREA": 0.0, "PERIMETER": 0.0, "POBZ17_": 193, "POBZ17_ID": 193, "PUEBLOS_": 1869, "PUEBLOS_ID": 2005, "NUM": 2005, "ID": 2005, "COD1": 3, "COD2": 1, "NOMBRE": "Guasaganda", "COD": 3, "CPROVIN": null, "CCANT": null, "CPARR": "Guasaganda", "CODIGO": "Cabecera Parroquial", "PROVINCIA": null, "POP_1990": 0, "POP_1995": 0, "POP_2002": 0, "ORDEN": 0 }, "geometry": { "type": "Point", "coordinates": [ -79.158662315827996, -0.802830487816905 ] } },
{ "type": "Feature", "properties": { "AREA": 0.0, "PERIMETER": 0.0, "POBZ17_": 194, "POBZ17_ID": 194, "PUEBLOS_": 1870, "PUEBLOS_ID": 2006, "NUM": 2006, "ID": 2006, "COD1": 3, "COD2": 1, "NOMBRE": "Pucayacu", "COD": 3, "CPROVIN": null, "CCANT": null, "CPARR": "Pucayacu", "CODIGO": "Cabecera Parroquial", "PROVINCIA": null, "POP_1990": 0, "POP_1995": 0, "POP_2002": 0, "ORDEN": 0 }, "geometry": { "type": "Point", "coordinates": [ -79.121094166993871, -0.718927271484934 ] } },
{ "type": "Feature", "properties": { "AREA": 0.0, "PERIMETER": 0.0, "POBZ17_": 195, "POBZ17_ID": 195, "PUEBLOS_": 1918, "PUEBLOS_ID": 2054, "NUM": 2054, "ID": 2054, "COD1": 3, "COD2": 1, "NOMBRE": "Tingo", "COD": 3, "CPROVIN": null, "CCANT": null, "CPARR": "Tingo", "CODIGO": "Cabecera Parroquial", "PROVINCIA": null, "POP_1990": 0, "POP_1995": 0, "POP_2002": 0, "ORDEN": 0 }, "geometry": { "type": "Point", "coordinates": [ -79.059067753682299, -0.918251979604039 ] } },
{ "type": "Feature", "properties": { "AREA": 0.0, "PERIMETER": 0.0, "POBZ17_": 196, "POBZ17_ID": 196, "PUEBLOS_": 1929, "PUEBLOS_ID": 2065, "NUM": 2065, "ID": 2065, "COD1": 3, "COD2": 1, "NOMBRE": "Pilalo", "COD": 3, "CPROVIN": null, "CCANT": null, "CPARR": "Pilalo", "CODIGO": "Cabecera Parroquial", "PROVINCIA": null, "POP_1990": 0, "POP_1995": 0, "POP_2002": 0, "ORDEN": 0 }, "geometry": { "type": "Point", "coordinates": [ -78.993973136702294, -0.944798933360464 ] } },
{ "type": "Feature", "properties": { "AREA": 0.0, "PERIMETER": 0.0, "POBZ17_": 197, "POBZ17_ID": 197, "PUEBLOS_": 1939, "PUEBLOS_ID": 2075, "NUM": 2075, "ID": 2075, "COD1": 3, "COD2": 1, "NOMBRE": "Las Pampas", "COD": 3, "CPROVIN": null, "CCANT": null, "CPARR": "Las Pampas", "CODIGO": "Cabecera Parroquial", "PROVINCIA": null, "POP_1990": 0, "POP_1995": 0, "POP_2002": 0, "ORDEN": 0 }, "geometry": { "type": "Point", "coordinates": [ -78.968967966476569, -0.427905055365597 ] } },
{ "type": "Feature", "properties": { "AREA": 0.0, "PERIMETER": 0.0, "POBZ17_": 198, "POBZ17_ID": 198, "PUEBLOS_": 1941, "PUEBLOS_ID": 2077, "NUM": 2077, "ID": 2077, "COD1": 3, "COD2": 1, "NOMBRE": "Alluriquin", "COD": 3, "CPROVIN": null, "CCANT": null, "CPARR": "Alluriquin", "CODIGO": "Cabecera Parroquial", "PROVINCIA": null, "POP_1990": 0, "POP_1995": 0, "POP_2002": 0, "ORDEN": 0 }, "geometry": { "type": "Point", "coordinates": [ -78.994724430988441, -0.323651540589982 ] } },
{ "type": "Feature", "properties": { "AREA": 0.0, "PERIMETER": 0.0, "POBZ17_": 199, "POBZ17_ID": 199, "PUEBLOS_": 1949, "PUEBLOS_ID": 2085, "NUM": 2085, "ID": 2085, "COD1": 3, "COD2": 1, "NOMBRE": "Palo Quemado", "COD": 3, "CPROVIN": null, "CCANT": null, "CPARR": "Palo Quemado", "CODIGO": "Cabecera Parroquial", "PROVINCIA": null, "POP_1990": 0, "POP_1995": 0, "POP_2002": 0, "ORDEN": 0 }, "geometry": { "type": "Point", "coordinates": [ -78.923877367440099, -0.373148071316785 ] } },
{ "type": "Feature", "properties": { "AREA": 0.0, "PERIMETER": 0.0, "POBZ17_": 200, "POBZ17_ID": 200, "PUEBLOS_": 1965, "PUEBLOS_ID": 2101, "NUM": 2101, "ID": 2101, "COD1": 3, "COD2": 1, "NOMBRE": "Isinlibi", "COD": 3, "CPROVIN": null, "CCANT": null, "CPARR": "Isinlibi", "CODIGO": "Cabecera Parroquial", "PROVINCIA": null, "POP_1990": 0, "POP_1995": 0, "POP_2002": 0, "ORDEN": 0 }, "geometry": { "type": "Point", "coordinates": [ -78.869802027546953, -0.757821049339835 ] } },
{ "type": "Feature", "properties": { "AREA": 0.0, "PERIMETER": 0.0, "POBZ17_": 201, "POBZ17_ID": 201, "PUEBLOS_": 1968, "PUEBLOS_ID": 2104, "NUM": 2104, "ID": 2104, "COD1": 3, "COD2": 1, "NOMBRE": "Chucchilan", "COD": 3, "CPROVIN": null, "CCANT": null, "CPARR": "Chucchilan", "CODIGO": "Cabecera Parroquial", "PROVINCIA": null, "POP_1990": 0, "POP_1995": 0, "POP_2002": 0, "ORDEN": 0 }, "geometry": { "type": "Point", "coordinates": [ -78.920736725487032, -0.796090254487019 ] } },
{ "type": "Feature", "properties": { "AREA": 0.0, "PERIMETER": 0.0, "POBZ17_": 202, "POBZ17_ID": 202, "PUEBLOS_": 1972, "PUEBLOS_ID": 2108, "NUM": 2108, "ID": 2108, "COD1": 3, "COD2": 1, "NOMBRE": "Guangaje", "COD": 3, "CPROVIN": null, "CCANT": null, "CPARR": "Guangaje", "CODIGO": "Cabecera Parroquial", "PROVINCIA": null, "POP_1990": 0, "POP_1995": 0, "POP_2002": 0, "ORDEN": 0 }, "geometry": { "type": "Point", "coordinates": [ -78.850255961653914, -0.864819326003889 ] } },
{ "type": "Feature", "properties": { "AREA": 0.0, "PERIMETER": 0.0, "POBZ17_": 203, "POBZ17_ID": 203, "PUEBLOS_": 1986, "PUEBLOS_ID": 2122, "NUM": 2122, "ID": 2122, "COD1": 3, "COD2": 1, "NOMBRE": "Zumbahua", "COD": 3, "CPROVIN": null, "CCANT": null, "CPARR": "Zumbahua", "CODIGO": "Cabecera Parroquial", "PROVINCIA": null, "POP_1990": 0, "POP_1995": 0, "POP_2002": 0, "ORDEN": 0 }, "geometry": { "type": "Point", "coordinates": [ -78.901931114267796, -0.963740451939509 ] } },
{ "type": "Feature", "properties": { "AREA": 0.0, "PERIMETER": 0.0, "POBZ17_": 204, "POBZ17_ID": 204, "PUEBLOS_": 1995, "PUEBLOS_ID": 2131, "NUM": 2131, "ID": 2131, "COD1": 3, "COD2": 1, "NOMBRE": "Manuel Cornejo A", "COD": 3, "CPROVIN": null, "CCANT": null, "CPARR": "Manuel Cornejo A", "CODIGO": "Cabecera Parroquial", "PROVINCIA": null, "POP_1990": 0, "POP_1995": 0, "POP_2002": 0, "ORDEN": 0 }, "geometry": { "type": "Point", "coordinates": [ -78.800524167292977, -0.419352490698775 ] } },
{ "type": "Feature", "properties": { "AREA": 0.0, "PERIMETER": 0.0, "POBZ17_": 205, "POBZ17_ID": 205, "PUEBLOS_": 2000, "PUEBLOS_ID": 2136, "NUM": 2136, "ID": 2136, "COD1": 3, "COD2": 1, "NOMBRE": "Mindo", "COD": 3, "CPROVIN": null, "CCANT": null, "CPARR": "Mindo", "CODIGO": "Cabecera Parroquial", "PROVINCIA": null, "POP_1990": 0, "POP_1995": 0, "POP_2002": 0, "ORDEN": 0 }, "geometry": { "type": "Point", "coordinates": [ -78.777190948416987, -0.055766330141238 ] } },
{ "type": "Feature", "properties": { "AREA": 0.0, "PERIMETER": 0.0, "POBZ17_": 206, "POBZ17_ID": 206, "PUEBLOS_": 2006, "PUEBLOS_ID": 2142, "NUM": 2142, "ID": 2142, "COD1": 3, "COD2": 1, "NOMBRE": "Canchagua", "COD": 3, "CPROVIN": null, "CCANT": null, "CPARR": "Canchagua", "CODIGO": "Cabecera Parroquial", "PROVINCIA": null, "POP_1990": 0, "POP_1995": 0, "POP_2002": 0, "ORDEN": 0 }, "geometry": { "type": "Point", "coordinates": [ -78.686389476699944, -0.807890037833168 ] } },
{ "type": "Feature", "properties": { "AREA": 0.0, "PERIMETER": 0.0, "POBZ17_": 207, "POBZ17_ID": 207, "PUEBLOS_": 2011, "PUEBLOS_ID": 2147, "NUM": 2147, "ID": 2147, "COD1": 3, "COD2": 1, "NOMBRE": "La Victoria", "COD": 3, "CPROVIN": null, "CCANT": null, "CPARR": "La Victoria", "CODIGO": "Cabecera Parroquial", "PROVINCIA": null, "POP_1990": 0, "POP_1995": 0, "POP_2002": 0, "ORDEN": 0 }, "geometry": { "type": "Point", "coordinates": [ -78.697628389493147, -0.917505552233618 ] } },